[
    {
        "origin": {
            "lat": 41.41843843,
            "lng": 19.71341944,
            "name": "tirana-international-airport-nene-tereza"
        },
        "destination": {
            "lat": 48.23964126,
            "lng": 14.19116693,
            "name": "linz"
        }
    },
    {
        "origin": {
            "lat": 41.41843843,
            "lng": 19.71341944,
            "name": "tirana-international-airport-nene-tereza"
        },
        "destination": {
            "lat": 48.11243339,
            "lng": 16.57483798,
            "name": "vienna-international"
        }
    },
    {
        "origin": {
            "lat": 41.41843843,
            "lng": 19.71341944,
            "name": "tirana-international-airport-nene-tereza"
        },
        "destination": {
            "lat": 50.90207279,
            "lng": 4.482947232,
            "name": "brussels"
        }
    },
    {
        "origin": {
            "lat": 41.41843843,
            "lng": 19.71341944,
            "name": "tirana-international-airport-nene-tereza"
        },
        "destination": {
            "lat": 50.46239012,
            "lng": 4.45938871,
            "name": "brussels-south-charleroi"
        }
    },
    {
        "origin": {
            "lat": 41.41843843,
            "lng": 19.71341944,
            "name": "tirana-international-airport-nene-tereza"
        },
        "destination": {
            "lat": 50.90207279,
            "lng": 4.482947232,
            "name": "brussels"
        }
    },
    {
        "origin": {
            "lat": 41.41843843,
            "lng": 19.71341944,
            "name": "tirana-international-airport-nene-tereza"
        },
        "destination": {
            "lat": 50.46239012,
            "lng": 4.45938871,
            "name": "brussels-south-charleroi"
        }
    },
    {
        "origin": {
            "lat": 41.41843843,
            "lng": 19.71341944,
            "name": "tirana-international-airport-nene-tereza"
        },
        "destination": {
            "lat": 43.82622396,
            "lng": 18.33687115,
            "name": "sarajevo-international"
        }
    },
    {
        "origin": {
            "lat": 41.41843843,
            "lng": 19.71341944,
            "name": "tirana-international-airport-nene-tereza"
        },
        "destination": {
            "lat": 42.68883587,
            "lng": 23.41475799,
            "name": "sofia"
        }
    },
    {
        "origin": {
            "lat": 41.41843843,
            "lng": 19.71341944,
            "name": "tirana-international-airport-nene-tereza"
        },
        "destination": {
            "lat": 45.74078032,
            "lng": 16.06633153,
            "name": "zagreb"
        }
    },
    {
        "origin": {
            "lat": 41.41843843,
            "lng": 19.71341944,
            "name": "tirana-international-airport-nene-tereza"
        },
        "destination": {
            "lat": 49.1522874,
            "lng": 16.6928681,
            "name": "brno-turany"
        }
    },
    {
        "origin": {
            "lat": 41.41843843,
            "lng": 19.71341944,
            "name": "tirana-international-airport-nene-tereza"
        },
        "destination": {
            "lat": 50.10266879,
            "lng": 14.26200554,
            "name": "vaclav-havel-airport-prague"
        }
    },
    {
        "origin": {
            "lat": 41.41843843,
            "lng": 19.71341944,
            "name": "tirana-international-airport-nene-tereza"
        },
        "destination": {
            "lat": 56.30736937,
            "lng": 10.62742741,
            "name": "aarhus"
        }
    },
    {
        "origin": {
            "lat": 41.41843843,
            "lng": 19.71341944,
            "name": "tirana-international-airport-nene-tereza"
        },
        "destination": {
            "lat": 55.53561256,
            "lng": 13.37212714,
            "name": "malmo"
        }
    },
    {
        "origin": {
            "lat": 41.41843843,
            "lng": 19.71341944,
            "name": "tirana-international-airport-nene-tereza"
        },
        "destination": {
            "lat": 59.41396371,
            "lng": 24.82100989,
            "name": "tallinn"
        }
    },
    {
        "origin": {
            "lat": 41.41843843,
            "lng": 19.71341944,
            "name": "tirana-international-airport-nene-tereza"
        },
        "destination": {
            "lat": 60.31789256,
            "lng": 24.94980032,
            "name": "helsinki"
        }
    },
    {
        "origin": {
            "lat": 41.41843843,
            "lng": 19.71341944,
            "name": "tirana-international-airport-nene-tereza"
        },
        "destination": {
            "lat": 44.82954442,
            "lng": -0.713848719,
            "name": "bordeaux-merignac"
        }
    },
    {
        "origin": {
            "lat": 41.41843843,
            "lng": 19.71341944,
            "name": "tirana-international-airport-nene-tereza"
        },
        "destination": {
            "lat": 45.36291249,
            "lng": 5.329801127,
            "name": "alpes-isere"
        }
    },
    {
        "origin": {
            "lat": 41.41843843,
            "lng": 19.71341944,
            "name": "tirana-international-airport-nene-tereza"
        },
        "destination": {
            "lat": 50.5662597,
            "lng": 3.100232821,
            "name": "lille"
        }
    },
    {
        "origin": {
            "lat": 41.41843843,
            "lng": 19.71341944,
            "name": "tirana-international-airport-nene-tereza"
        },
        "destination": {
            "lat": 45.72346294,
            "lng": 5.08889179,
            "name": "lyon-saint-exupery"
        }
    },
    {
        "origin": {
            "lat": 41.41843843,
            "lng": 19.71341944,
            "name": "tirana-international-airport-nene-tereza"
        },
        "destination": {
            "lat": 43.43823641,
            "lng": 5.21352416,
            "name": "marseille-provence"
        }
    },
    {
        "origin": {
            "lat": 41.41843843,
            "lng": 19.71341944,
            "name": "tirana-international-airport-nene-tereza"
        },
        "destination": {
            "lat": 43.58012973,
            "lng": 3.966027437,
            "name": "montpellier-mediterranee"
        }
    },
    {
        "origin": {
            "lat": 41.41843843,
            "lng": 19.71341944,
            "name": "tirana-international-airport-nene-tereza"
        },
        "destination": {
            "lat": 47.15764493,
            "lng": -1.607390316,
            "name": "nantes-atlantique"
        }
    },
    {
        "origin": {
            "lat": 41.41843843,
            "lng": 19.71341944,
            "name": "tirana-international-airport-nene-tereza"
        },
        "destination": {
            "lat": 43.65975334,
            "lng": 7.214028183,
            "name": "nice-cote-d-azur-international"
        }
    },
    {
        "origin": {
            "lat": 41.41843843,
            "lng": 19.71341944,
            "name": "tirana-international-airport-nene-tereza"
        },
        "destination": {
            "lat": 48.72630279,
            "lng": 2.36517643,
            "name": "paris-orly"
        }
    },
    {
        "origin": {
            "lat": 41.41843843,
            "lng": 19.71341944,
            "name": "tirana-international-airport-nene-tereza"
        },
        "destination": {
            "lat": 48.0707405,
            "lng": -1.725586542,
            "name": "rennes-saint-jacques"
        }
    },
    {
        "origin": {
            "lat": 41.41843843,
            "lng": 19.71341944,
            "name": "tirana-international-airport-nene-tereza"
        },
        "destination": {
            "lat": 48.77779916,
            "lng": 8.08287255,
            "name": "karlsruhe-baden-baden"
        }
    },
    {
        "origin": {
            "lat": 41.41843843,
            "lng": 19.71341944,
            "name": "tirana-international-airport-nene-tereza"
        },
        "destination": {
            "lat": 43.09561307,
            "lng": 6.148818236,
            "name": "toulon-hyeres"
        }
    },
    {
        "origin": {
            "lat": 41.41843843,
            "lng": 19.71341944,
            "name": "tirana-international-airport-nene-tereza"
        },
        "destination": {
            "lat": 43.62939862,
            "lng": 1.367837851,
            "name": "toulouse-blagnac"
        }
    },
    {
        "origin": {
            "lat": 41.41843843,
            "lng": 19.71341944,
            "name": "tirana-international-airport-nene-tereza"
        },
        "destination": {
            "lat": 50.91226507,
            "lng": 5.77065226,
            "name": "maastricht-aachen"
        }
    },
    {
        "origin": {
            "lat": 41.41843843,
            "lng": 19.71341944,
            "name": "tirana-international-airport-nene-tereza"
        },
        "destination": {
            "lat": 52.36474242,
            "lng": 13.50960134,
            "name": "berlin-brandenburg"
        }
    },
    {
        "origin": {
            "lat": 41.41843843,
            "lng": 19.71341944,
            "name": "tirana-international-airport-nene-tereza"
        },
        "destination": {
            "lat": 53.04806814,
            "lng": 8.78473663,
            "name": "bremen"
        }
    },
    {
        "origin": {
            "lat": 41.41843843,
            "lng": 19.71341944,
            "name": "tirana-international-airport-nene-tereza"
        },
        "destination": {
            "lat": 51.13236833,
            "lng": 13.7662524,
            "name": "dresden"
        }
    },
    {
        "origin": {
            "lat": 41.41843843,
            "lng": 19.71341944,
            "name": "tirana-international-airport-nene-tereza"
        },
        "destination": {
            "lat": 50.86662955,
            "lng": 7.138957841,
            "name": "cologne-bonn"
        }
    },
    {
        "origin": {
            "lat": 41.41843843,
            "lng": 19.71341944,
            "name": "tirana-international-airport-nene-tereza"
        },
        "destination": {
            "lat": 50.03784999,
            "lng": 8.561248945,
            "name": "frankfurt"
        }
    },
    {
        "origin": {
            "lat": 41.41843843,
            "lng": 19.71341944,
            "name": "tirana-international-airport-nene-tereza"
        },
        "destination": {
            "lat": 53.63336709,
            "lng": 9.995435842,
            "name": "hamburg"
        }
    },
    {
        "origin": {
            "lat": 41.41843843,
            "lng": 19.71341944,
            "name": "tirana-international-airport-nene-tereza"
        },
        "destination": {
            "lat": 52.46331889,
            "lng": 9.683620956,
            "name": "hannover"
        }
    },
    {
        "origin": {
            "lat": 41.41843843,
            "lng": 19.71341944,
            "name": "tirana-international-airport-nene-tereza"
        },
        "destination": {
            "lat": 48.77779916,
            "lng": 8.08287255,
            "name": "karlsruhe-baden-baden"
        }
    },
    {
        "origin": {
            "lat": 41.41843843,
            "lng": 19.71341944,
            "name": "tirana-international-airport-nene-tereza"
        },
        "destination": {
            "lat": 53.63336709,
            "lng": 9.995435842,
            "name": "hamburg"
        }
    },
    {
        "origin": {
            "lat": 41.41843843,
            "lng": 19.71341944,
            "name": "tirana-international-airport-nene-tereza"
        },
        "destination": {
            "lat": 51.41302084,
            "lng": 12.23123543,
            "name": "leipzig-halle"
        }
    },
    {
        "origin": {
            "lat": 41.41843843,
            "lng": 19.71341944,
            "name": "tirana-international-airport-nene-tereza"
        },
        "destination": {
            "lat": 50.03784999,
            "lng": 8.561248945,
            "name": "frankfurt"
        }
    },
    {
        "origin": {
            "lat": 41.41843843,
            "lng": 19.71341944,
            "name": "tirana-international-airport-nene-tereza"
        },
        "destination": {
            "lat": 48.35059566,
            "lng": 11.77536828,
            "name": "munich"
        }
    },
    {
        "origin": {
            "lat": 41.41843843,
            "lng": 19.71341944,
            "name": "tirana-international-airport-nene-tereza"
        },
        "destination": {
            "lat": 51.51779463,
            "lng": 7.611080026,
            "name": "dortmund"
        }
    },
    {
        "origin": {
            "lat": 41.41843843,
            "lng": 19.71341944,
            "name": "tirana-international-airport-nene-tereza"
        },
        "destination": {
            "lat": 49.21539581,
            "lng": 7.110039004,
            "name": "saarbrucken"
        }
    },
    {
        "origin": {
            "lat": 41.41843843,
            "lng": 19.71341944,
            "name": "tirana-international-airport-nene-tereza"
        },
        "destination": {
            "lat": 48.68745178,
            "lng": 9.205711172,
            "name": "stuttgart"
        }
    },
    {
        "origin": {
            "lat": 41.41843843,
            "lng": 19.71341944,
            "name": "tirana-international-airport-nene-tereza"
        },
        "destination": {
            "lat": 37.9371091,
            "lng": 23.94884188,
            "name": "athens-international"
        }
    },
    {
        "origin": {
            "lat": 41.41843843,
            "lng": 19.71341944,
            "name": "tirana-international-airport-nene-tereza"
        },
        "destination": {
            "lat": 40.52064287,
            "lng": 22.97082858,
            "name": "thessaloniki-international-airport-macedonia"
        }
    },
    {
        "origin": {
            "lat": 41.41843843,
            "lng": 19.71341944,
            "name": "tirana-international-airport-nene-tereza"
        },
        "destination": {
            "lat": 47.43474239,
            "lng": 19.25864567,
            "name": "budapest-ferenc-liszt-international"
        }
    },
    {
        "origin": {
            "lat": 41.41843843,
            "lng": 19.71341944,
            "name": "tirana-international-airport-nene-tereza"
        },
        "destination": {
            "lat": 41.13757561,
            "lng": 16.76445302,
            "name": "bari-karol-wojtyla"
        }
    },
    {
        "origin": {
            "lat": 41.41843843,
            "lng": 19.71341944,
            "name": "tirana-international-airport-nene-tereza"
        },
        "destination": {
            "lat": 44.53521722,
            "lng": 11.28643204,
            "name": "bologna-guglielmo-marconi"
        }
    },
    {
        "origin": {
            "lat": 41.41843843,
            "lng": 19.71341944,
            "name": "tirana-international-airport-nene-tereza"
        },
        "destination": {
            "lat": 45.66881294,
            "lng": 9.701314239,
            "name": "orio-al-serio-international"
        }
    },
    {
        "origin": {
            "lat": 41.41843843,
            "lng": 19.71341944,
            "name": "tirana-international-airport-nene-tereza"
        },
        "destination": {
            "lat": 37.4675591,
            "lng": 15.06441942,
            "name": "catania-fontanarossa"
        }
    },
    {
        "origin": {
            "lat": 41.41843843,
            "lng": 19.71341944,
            "name": "tirana-international-airport-nene-tereza"
        },
        "destination": {
            "lat": 43.80836015,
            "lng": 11.20157676,
            "name": "florence"
        }
    },
    {
        "origin": {
            "lat": 41.41843843,
            "lng": 19.71341944,
            "name": "tirana-international-airport-nene-tereza"
        },
        "destination": {
            "lat": 44.41525104,
            "lng": 8.849758266,
            "name": "genoa-cristoforo-colombo"
        }
    },
    {
        "origin": {
            "lat": 41.41843843,
            "lng": 19.71341944,
            "name": "tirana-international-airport-nene-tereza"
        },
        "destination": {
            "lat": 45.62988987,
            "lng": 8.724608308,
            "name": "milan-malpensa"
        }
    },
    {
        "origin": {
            "lat": 41.41843843,
            "lng": 19.71341944,
            "name": "tirana-international-airport-nene-tereza"
        },
        "destination": {
            "lat": 40.88487105,
            "lng": 14.28853633,
            "name": "naples-international"
        }
    },
    {
        "origin": {
            "lat": 41.41843843,
            "lng": 19.71341944,
            "name": "tirana-international-airport-nene-tereza"
        },
        "destination": {
            "lat": 38.17955418,
            "lng": 13.09929019,
            "name": "falcone-borsellino"
        }
    },
    {
        "origin": {
            "lat": 41.41843843,
            "lng": 19.71341944,
            "name": "tirana-international-airport-nene-tereza"
        },
        "destination": {
            "lat": 41.80379504,
            "lng": 12.25229173,
            "name": "leonardo-da-vinci-fiumicino"
        }
    },
    {
        "origin": {
            "lat": 41.41843843,
            "lng": 19.71341944,
            "name": "tirana-international-airport-nene-tereza"
        },
        "destination": {
            "lat": 45.19681545,
            "lng": 7.647018693,
            "name": "turin"
        }
    },
    {
        "origin": {
            "lat": 41.41843843,
            "lng": 19.71341944,
            "name": "tirana-international-airport-nene-tereza"
        },
        "destination": {
            "lat": 45.50443652,
            "lng": 12.34777319,
            "name": "venice-marco-polo"
        }
    },
    {
        "origin": {
            "lat": 41.41843843,
            "lng": 19.71341944,
            "name": "tirana-international-airport-nene-tereza"
        },
        "destination": {
            "lat": 45.39676888,
            "lng": 10.8859908,
            "name": "verona-villafranca"
        }
    },
    {
        "origin": {
            "lat": 41.41843843,
            "lng": 19.71341944,
            "name": "tirana-international-airport-nene-tereza"
        },
        "destination": {
            "lat": 42.5747534,
            "lng": 21.0308741,
            "name": "pristina-international"
        }
    },
    {
        "origin": {
            "lat": 41.41843843,
            "lng": 19.71341944,
            "name": "tirana-international-airport-nene-tereza"
        },
        "destination": {
            "lat": 56.92302427,
            "lng": 23.97128515,
            "name": "riga-international"
        }
    },
    {
        "origin": {
            "lat": 41.41843843,
            "lng": 19.71341944,
            "name": "tirana-international-airport-nene-tereza"
        },
        "destination": {
            "lat": 54.63809245,
            "lng": 25.28489528,
            "name": "vilnius"
        }
    },
    {
        "origin": {
            "lat": 41.41843843,
            "lng": 19.71341944,
            "name": "tirana-international-airport-nene-tereza"
        },
        "destination": {
            "lat": 49.625634,
            "lng": 6.208076725,
            "name": "luxembourg"
        }
    },
    {
        "origin": {
            "lat": 41.41843843,
            "lng": 19.71341944,
            "name": "tirana-international-airport-nene-tereza"
        },
        "destination": {
            "lat": 41.96099959,
            "lng": 21.62681239,
            "name": "skopje-alexander-the-great"
        }
    },
    {
        "origin": {
            "lat": 41.41843843,
            "lng": 19.71341944,
            "name": "tirana-international-airport-nene-tereza"
        },
        "destination": {
            "lat": 46.93400226,
            "lng": 28.93338427,
            "name": "chisinau-international"
        }
    },
    {
        "origin": {
            "lat": 41.41843843,
            "lng": 19.71341944,
            "name": "tirana-international-airport-nene-tereza"
        },
        "destination": {
            "lat": 42.36780184,
            "lng": 19.25169196,
            "name": "podgorica"
        }
    },
    {
        "origin": {
            "lat": 41.41843843,
            "lng": 19.71341944,
            "name": "tirana-international-airport-nene-tereza"
        },
        "destination": {
            "lat": 60.29220631,
            "lng": 5.221732401,
            "name": "bergen-airport"
        }
    },
    {
        "origin": {
            "lat": 41.41843843,
            "lng": 19.71341944,
            "name": "tirana-international-airport-nene-tereza"
        },
        "destination": {
            "lat": 60.19501032,
            "lng": 11.09753062,
            "name": "oslo-airport"
        }
    },
    {
        "origin": {
            "lat": 41.41843843,
            "lng": 19.71341944,
            "name": "tirana-international-airport-nene-tereza"
        },
        "destination": {
            "lat": 54.37948335,
            "lng": 18.46623417,
            "name": "gdansk-lech-walesa"
        }
    },
    {
        "origin": {
            "lat": 41.41843843,
            "lng": 19.71341944,
            "name": "tirana-international-airport-nene-tereza"
        },
        "destination": {
            "lat": 50.47535479,
            "lng": 19.07546669,
            "name": "katowice-international"
        }
    },
    {
        "origin": {
            "lat": 41.41843843,
            "lng": 19.71341944,
            "name": "tirana-international-airport-nene-tereza"
        },
        "destination": {
            "lat": 50.07758305,
            "lng": 19.78674673,
            "name": "john-paul-ii-international-airport-krakow-balice"
        }
    },
    {
        "origin": {
            "lat": 41.41843843,
            "lng": 19.71341944,
            "name": "tirana-international-airport-nene-tereza"
        },
        "destination": {
            "lat": 51.72084301,
            "lng": 19.39494274,
            "name": "lodz-wladyslaw-reymont"
        }
    },
    {
        "origin": {
            "lat": 41.41843843,
            "lng": 19.71341944,
            "name": "tirana-international-airport-nene-tereza"
        },
        "destination": {
            "lat": 51.23719306,
            "lng": 22.71265524,
            "name": "lublin"
        }
    },
    {
        "origin": {
            "lat": 41.41843843,
            "lng": 19.71341944,
            "name": "tirana-international-airport-nene-tereza"
        },
        "destination": {
            "lat": 52.42056505,
            "lng": 16.82793865,
            "name": "poznan-lawica"
        }
    },
    {
        "origin": {
            "lat": 41.41843843,
            "lng": 19.71341944,
            "name": "tirana-international-airport-nene-tereza"
        },
        "destination": {
            "lat": 50.11424137,
            "lng": 22.02400823,
            "name": "rzeszow-jasionka"
        }
    },
    {
        "origin": {
            "lat": 41.41843843,
            "lng": 19.71341944,
            "name": "tirana-international-airport-nene-tereza"
        },
        "destination": {
            "lat": 52.16751858,
            "lng": 20.96607839,
            "name": "warsaw-chopin"
        }
    },
    {
        "origin": {
            "lat": 41.41843843,
            "lng": 19.71341944,
            "name": "tirana-international-airport-nene-tereza"
        },
        "destination": {
            "lat": 51.10611032,
            "lng": 16.87907565,
            "name": "copernicus-airport-wroclaw"
        }
    },
    {
        "origin": {
            "lat": 41.41843843,
            "lng": 19.71341944,
            "name": "tirana-international-airport-nene-tereza"
        },
        "destination": {
            "lat": 38.77652215,
            "lng": -9.137324464,
            "name": "lisbon-portela"
        }
    },
    {
        "origin": {
            "lat": 41.41843843,
            "lng": 19.71341944,
            "name": "tirana-international-airport-nene-tereza"
        },
        "destination": {
            "lat": 41.24167551,
            "lng": -8.679150062,
            "name": "porto"
        }
    },
    {
        "origin": {
            "lat": 41.41843843,
            "lng": 19.71341944,
            "name": "tirana-international-airport-nene-tereza"
        },
        "destination": {
            "lat": 44.57036759,
            "lng": 26.08592959,
            "name": "henri-coanda-international"
        }
    },
    {
        "origin": {
            "lat": 41.41843843,
            "lng": 19.71341944,
            "name": "tirana-international-airport-nene-tereza"
        },
        "destination": {
            "lat": 46.78336758,
            "lng": 23.68672898,
            "name": "cluj-international-cluj"
        }
    },
    {
        "origin": {
            "lat": 41.41843843,
            "lng": 19.71341944,
            "name": "tirana-international-airport-nene-tereza"
        },
        "destination": {
            "lat": 47.17686421,
            "lng": 27.61872184,
            "name": "iasi-international"
        }
    },
    {
        "origin": {
            "lat": 41.41843843,
            "lng": 19.71341944,
            "name": "tirana-international-airport-nene-tereza"
        },
        "destination": {
            "lat": 44.82173163,
            "lng": 20.29111599,
            "name": "belgrade-nikola-tesla"
        }
    },
    {
        "origin": {
            "lat": 41.41843843,
            "lng": 19.71341944,
            "name": "tirana-international-airport-nene-tereza"
        },
        "destination": {
            "lat": 48.17112892,
            "lng": 17.2106461,
            "name": "bratislava"
        }
    },
    {
        "origin": {
            "lat": 41.41843843,
            "lng": 19.71341944,
            "name": "tirana-international-airport-nene-tereza"
        },
        "destination": {
            "lat": 48.67297651,
            "lng": 21.23829483,
            "name": "kosice-international"
        }
    },
    {
        "origin": {
            "lat": 41.41843843,
            "lng": 19.71341944,
            "name": "tirana-international-airport-nene-tereza"
        },
        "destination": {
            "lat": 46.2274106,
            "lng": 14.45189459,
            "name": "ljubljana-joze-pucnik"
        }
    },
    {
        "origin": {
            "lat": 41.41843843,
            "lng": 19.71341944,
            "name": "tirana-international-airport-nene-tereza"
        },
        "destination": {
            "lat": 41.29898632,
            "lng": 2.083383804,
            "name": "barcelona-el-prat"
        }
    },
    {
        "origin": {
            "lat": 41.41843843,
            "lng": 19.71341944,
            "name": "tirana-international-airport-nene-tereza"
        },
        "destination": {
            "lat": 43.30302036,
            "lng": -2.907000521,
            "name": "bilbao"
        }
    },
    {
        "origin": {
            "lat": 41.41843843,
            "lng": 19.71341944,
            "name": "tirana-international-airport-nene-tereza"
        },
        "destination": {
            "lat": 40.49882187,
            "lng": -3.568455978,
            "name": "adolfo-suarez-madrid-barajas"
        }
    },
    {
        "origin": {
            "lat": 41.41843843,
            "lng": 19.71341944,
            "name": "tirana-international-airport-nene-tereza"
        },
        "destination": {
            "lat": 37.419886,
            "lng": -5.894691156,
            "name": "seville"
        }
    },
    {
        "origin": {
            "lat": 41.41843843,
            "lng": 19.71341944,
            "name": "tirana-international-airport-nene-tereza"
        },
        "destination": {
            "lat": 39.48950604,
            "lng": -0.480022024,
            "name": "valencia"
        }
    },
    {
        "origin": {
            "lat": 41.41843843,
            "lng": 19.71341944,
            "name": "tirana-international-airport-nene-tereza"
        },
        "destination": {
            "lat": 41.66557509,
            "lng": -1.050087204,
            "name": "zaragoza"
        }
    },
    {
        "origin": {
            "lat": 41.41843843,
            "lng": 19.71341944,
            "name": "tirana-international-airport-nene-tereza"
        },
        "destination": {
            "lat": 57.67140854,
            "lng": 12.28730406,
            "name": "goteborg-landvetter"
        }
    },
    {
        "origin": {
            "lat": 41.41843843,
            "lng": 19.71341944,
            "name": "tirana-international-airport-nene-tereza"
        },
        "destination": {
            "lat": 59.65012578,
            "lng": 17.92282716,
            "name": "stockholm-arlanda"
        }
    },
    {
        "origin": {
            "lat": 41.41843843,
            "lng": 19.71341944,
            "name": "tirana-international-airport-nene-tereza"
        },
        "destination": {
            "lat": 47.59801059,
            "lng": 7.523736116,
            "name": "euroairport-basel-mulhouse-freiburg"
        }
    },
    {
        "origin": {
            "lat": 41.41843843,
            "lng": 19.71341944,
            "name": "tirana-international-airport-nene-tereza"
        },
        "destination": {
            "lat": 46.23690511,
            "lng": 6.10824207,
            "name": "geneva"
        }
    },
    {
        "origin": {
            "lat": 41.41843843,
            "lng": 19.71341944,
            "name": "tirana-international-airport-nene-tereza"
        },
        "destination": {
            "lat": 47.46144231,
            "lng": 8.552618604,
            "name": "zurich"
        }
    },
    {
        "origin": {
            "lat": 41.41843843,
            "lng": 19.71341944,
            "name": "tirana-international-airport-nene-tereza"
        },
        "destination": {
            "lat": 52.31962357,
            "lng": 4.739179704,
            "name": "amsterdam-airport-schiphol"
        }
    },
    {
        "origin": {
            "lat": 41.41843843,
            "lng": 19.71341944,
            "name": "tirana-international-airport-nene-tereza"
        },
        "destination": {
            "lat": 51.45791473,
            "lng": 5.390808879,
            "name": "eindhoven"
        }
    },
    {
        "origin": {
            "lat": 41.41843843,
            "lng": 19.71341944,
            "name": "tirana-international-airport-nene-tereza"
        },
        "destination": {
            "lat": 51.95672767,
            "lng": 4.439722684,
            "name": "rotterdam-the-hague"
        }
    },
    {
        "origin": {
            "lat": 41.41843843,
            "lng": 19.71341944,
            "name": "tirana-international-airport-nene-tereza"
        },
        "destination": {
            "lat": 52.31962357,
            "lng": 4.739179704,
            "name": "amsterdam-airport-schiphol"
        }
    },
    {
        "origin": {
            "lat": 41.41843843,
            "lng": 19.71341944,
            "name": "tirana-international-airport-nene-tereza"
        },
        "destination": {
            "lat": 52.45193167,
            "lng": -1.744244238,
            "name": "birmingham"
        }
    },
    {
        "origin": {
            "lat": 41.41843843,
            "lng": 19.71341944,
            "name": "tirana-international-airport-nene-tereza"
        },
        "destination": {
            "lat": 55.95122361,
            "lng": -3.363094563,
            "name": "edinburgh"
        }
    },
    {
        "origin": {
            "lat": 41.41843843,
            "lng": 19.71341944,
            "name": "tirana-international-airport-nene-tereza"
        },
        "destination": {
            "lat": 55.86912858,
            "lng": -4.435405793,
            "name": "glasgow"
        }
    },
    {
        "origin": {
            "lat": 41.41843843,
            "lng": 19.71341944,
            "name": "tirana-international-airport-nene-tereza"
        },
        "destination": {
            "lat": 53.86758182,
            "lng": -1.661159299,
            "name": "leeds-bradford"
        }
    },
    {
        "origin": {
            "lat": 41.41843843,
            "lng": 19.71341944,
            "name": "tirana-international-airport-nene-tereza"
        },
        "destination": {
            "lat": 53.33553879,
            "lng": -2.853859333,
            "name": "liverpool-john-lennon"
        }
    },
    {
        "origin": {
            "lat": 41.41843843,
            "lng": 19.71341944,
            "name": "tirana-international-airport-nene-tereza"
        },
        "destination": {
            "lat": 51.87599958,
            "lng": -0.370309411,
            "name": "luton"
        }
    },
    {
        "origin": {
            "lat": 41.41843843,
            "lng": 19.71341944,
            "name": "tirana-international-airport-nene-tereza"
        },
        "destination": {
            "lat": 53.33553879,
            "lng": -2.853859333,
            "name": "liverpool-john-lennon"
        }
    },
    {
        "origin": {
            "lat": 41.41843843,
            "lng": 19.71341944,
            "name": "tirana-international-airport-nene-tereza"
        },
        "destination": {
            "lat": 55.03825989,
            "lng": -1.690185611,
            "name": "newcastle"
        }
    },
    {
        "origin": {
            "lat": 48.23964126,
            "lng": 14.19116693,
            "name": "linz"
        },
        "destination": {
            "lat": 41.41843843,
            "lng": 19.71341944,
            "name": "tirana-international-airport-nene-tereza"
        }
    },
    {
        "origin": {
            "lat": 48.23964126,
            "lng": 14.19116693,
            "name": "linz"
        },
        "destination": {
            "lat": 48.11243339,
            "lng": 16.57483798,
            "name": "vienna-international"
        }
    },
    {
        "origin": {
            "lat": 48.23964126,
            "lng": 14.19116693,
            "name": "linz"
        },
        "destination": {
            "lat": 50.90207279,
            "lng": 4.482947232,
            "name": "brussels"
        }
    },
    {
        "origin": {
            "lat": 48.23964126,
            "lng": 14.19116693,
            "name": "linz"
        },
        "destination": {
            "lat": 50.90207279,
            "lng": 4.482947232,
            "name": "brussels"
        }
    },
    {
        "origin": {
            "lat": 48.23964126,
            "lng": 14.19116693,
            "name": "linz"
        },
        "destination": {
            "lat": 50.90207279,
            "lng": 4.482947232,
            "name": "brussels"
        }
    },
    {
        "origin": {
            "lat": 48.23964126,
            "lng": 14.19116693,
            "name": "linz"
        },
        "destination": {
            "lat": 50.90207279,
            "lng": 4.482947232,
            "name": "brussels"
        }
    },
    {
        "origin": {
            "lat": 48.23964126,
            "lng": 14.19116693,
            "name": "linz"
        },
        "destination": {
            "lat": 43.82622396,
            "lng": 18.33687115,
            "name": "sarajevo-international"
        }
    },
    {
        "origin": {
            "lat": 48.23964126,
            "lng": 14.19116693,
            "name": "linz"
        },
        "destination": {
            "lat": 42.68883587,
            "lng": 23.41475799,
            "name": "sofia"
        }
    },
    {
        "origin": {
            "lat": 48.23964126,
            "lng": 14.19116693,
            "name": "linz"
        },
        "destination": {
            "lat": 45.74078032,
            "lng": 16.06633153,
            "name": "zagreb"
        }
    },
    {
        "origin": {
            "lat": 48.23964126,
            "lng": 14.19116693,
            "name": "linz"
        },
        "destination": {
            "lat": 49.1522874,
            "lng": 16.6928681,
            "name": "brno-turany"
        }
    },
    {
        "origin": {
            "lat": 48.23964126,
            "lng": 14.19116693,
            "name": "linz"
        },
        "destination": {
            "lat": 50.10266879,
            "lng": 14.26200554,
            "name": "vaclav-havel-airport-prague"
        }
    },
    {
        "origin": {
            "lat": 48.23964126,
            "lng": 14.19116693,
            "name": "linz"
        },
        "destination": {
            "lat": 56.30736937,
            "lng": 10.62742741,
            "name": "aarhus"
        }
    },
    {
        "origin": {
            "lat": 48.23964126,
            "lng": 14.19116693,
            "name": "linz"
        },
        "destination": {
            "lat": 55.61218241,
            "lng": 12.64594781,
            "name": "copenhagen"
        }
    },
    {
        "origin": {
            "lat": 48.23964126,
            "lng": 14.19116693,
            "name": "linz"
        },
        "destination": {
            "lat": 59.41396371,
            "lng": 24.82100989,
            "name": "tallinn"
        }
    },
    {
        "origin": {
            "lat": 48.23964126,
            "lng": 14.19116693,
            "name": "linz"
        },
        "destination": {
            "lat": 60.31789256,
            "lng": 24.94980032,
            "name": "helsinki"
        }
    },
    {
        "origin": {
            "lat": 48.23964126,
            "lng": 14.19116693,
            "name": "linz"
        },
        "destination": {
            "lat": 44.82954442,
            "lng": -0.713848719,
            "name": "bordeaux-merignac"
        }
    },
    {
        "origin": {
            "lat": 48.23964126,
            "lng": 14.19116693,
            "name": "linz"
        },
        "destination": {
            "lat": 45.36291249,
            "lng": 5.329801127,
            "name": "alpes-isere"
        }
    },
    {
        "origin": {
            "lat": 48.23964126,
            "lng": 14.19116693,
            "name": "linz"
        },
        "destination": {
            "lat": 50.5662597,
            "lng": 3.100232821,
            "name": "lille"
        }
    },
    {
        "origin": {
            "lat": 48.23964126,
            "lng": 14.19116693,
            "name": "linz"
        },
        "destination": {
            "lat": 45.72346294,
            "lng": 5.08889179,
            "name": "lyon-saint-exupery"
        }
    },
    {
        "origin": {
            "lat": 48.23964126,
            "lng": 14.19116693,
            "name": "linz"
        },
        "destination": {
            "lat": 43.43823641,
            "lng": 5.21352416,
            "name": "marseille-provence"
        }
    },
    {
        "origin": {
            "lat": 48.23964126,
            "lng": 14.19116693,
            "name": "linz"
        },
        "destination": {
            "lat": 43.58012973,
            "lng": 3.966027437,
            "name": "montpellier-mediterranee"
        }
    },
    {
        "origin": {
            "lat": 48.23964126,
            "lng": 14.19116693,
            "name": "linz"
        },
        "destination": {
            "lat": 47.15764493,
            "lng": -1.607390316,
            "name": "nantes-atlantique"
        }
    },
    {
        "origin": {
            "lat": 48.23964126,
            "lng": 14.19116693,
            "name": "linz"
        },
        "destination": {
            "lat": 43.65975334,
            "lng": 7.214028183,
            "name": "nice-cote-d-azur-international"
        }
    },
    {
        "origin": {
            "lat": 48.23964126,
            "lng": 14.19116693,
            "name": "linz"
        },
        "destination": {
            "lat": 49.00828913,
            "lng": 2.550384072,
            "name": "charles-de-gaulle"
        }
    },
    {
        "origin": {
            "lat": 48.23964126,
            "lng": 14.19116693,
            "name": "linz"
        },
        "destination": {
            "lat": 48.0707405,
            "lng": -1.725586542,
            "name": "rennes-saint-jacques"
        }
    },
    {
        "origin": {
            "lat": 48.23964126,
            "lng": 14.19116693,
            "name": "linz"
        },
        "destination": {
            "lat": 48.5397203,
            "lng": 7.623374989,
            "name": "strasbourg"
        }
    },
    {
        "origin": {
            "lat": 48.23964126,
            "lng": 14.19116693,
            "name": "linz"
        },
        "destination": {
            "lat": 43.09561307,
            "lng": 6.148818236,
            "name": "toulon-hyeres"
        }
    },
    {
        "origin": {
            "lat": 48.23964126,
            "lng": 14.19116693,
            "name": "linz"
        },
        "destination": {
            "lat": 43.62939862,
            "lng": 1.367837851,
            "name": "toulouse-blagnac"
        }
    },
    {
        "origin": {
            "lat": 48.23964126,
            "lng": 14.19116693,
            "name": "linz"
        },
        "destination": {
            "lat": 50.91226507,
            "lng": 5.77065226,
            "name": "maastricht-aachen"
        }
    },
    {
        "origin": {
            "lat": 48.23964126,
            "lng": 14.19116693,
            "name": "linz"
        },
        "destination": {
            "lat": 52.36474242,
            "lng": 13.50960134,
            "name": "berlin-brandenburg"
        }
    },
    {
        "origin": {
            "lat": 48.23964126,
            "lng": 14.19116693,
            "name": "linz"
        },
        "destination": {
            "lat": 53.04806814,
            "lng": 8.78473663,
            "name": "bremen"
        }
    },
    {
        "origin": {
            "lat": 48.23964126,
            "lng": 14.19116693,
            "name": "linz"
        },
        "destination": {
            "lat": 51.13236833,
            "lng": 13.7662524,
            "name": "dresden"
        }
    },
    {
        "origin": {
            "lat": 48.23964126,
            "lng": 14.19116693,
            "name": "linz"
        },
        "destination": {
            "lat": 51.28766157,
            "lng": 6.766062556,
            "name": "dusseldorf"
        }
    },
    {
        "origin": {
            "lat": 48.23964126,
            "lng": 14.19116693,
            "name": "linz"
        },
        "destination": {
            "lat": 50.03784999,
            "lng": 8.561248945,
            "name": "frankfurt"
        }
    },
    {
        "origin": {
            "lat": 48.23964126,
            "lng": 14.19116693,
            "name": "linz"
        },
        "destination": {
            "lat": 53.63336709,
            "lng": 9.995435842,
            "name": "hamburg"
        }
    },
    {
        "origin": {
            "lat": 48.23964126,
            "lng": 14.19116693,
            "name": "linz"
        },
        "destination": {
            "lat": 52.46331889,
            "lng": 9.683620956,
            "name": "hannover"
        }
    },
    {
        "origin": {
            "lat": 48.23964126,
            "lng": 14.19116693,
            "name": "linz"
        },
        "destination": {
            "lat": 48.77779916,
            "lng": 8.08287255,
            "name": "karlsruhe-baden-baden"
        }
    },
    {
        "origin": {
            "lat": 48.23964126,
            "lng": 14.19116693,
            "name": "linz"
        },
        "destination": {
            "lat": 53.63336709,
            "lng": 9.995435842,
            "name": "hamburg"
        }
    },
    {
        "origin": {
            "lat": 48.23964126,
            "lng": 14.19116693,
            "name": "linz"
        },
        "destination": {
            "lat": 51.41302084,
            "lng": 12.23123543,
            "name": "leipzig-halle"
        }
    },
    {
        "origin": {
            "lat": 48.23964126,
            "lng": 14.19116693,
            "name": "linz"
        },
        "destination": {
            "lat": 50.03784999,
            "lng": 8.561248945,
            "name": "frankfurt"
        }
    },
    {
        "origin": {
            "lat": 48.23964126,
            "lng": 14.19116693,
            "name": "linz"
        },
        "destination": {
            "lat": 48.35059566,
            "lng": 11.77536828,
            "name": "munich"
        }
    },
    {
        "origin": {
            "lat": 48.23964126,
            "lng": 14.19116693,
            "name": "linz"
        },
        "destination": {
            "lat": 51.28766157,
            "lng": 6.766062556,
            "name": "dusseldorf"
        }
    },
    {
        "origin": {
            "lat": 48.23964126,
            "lng": 14.19116693,
            "name": "linz"
        },
        "destination": {
            "lat": 49.21539581,
            "lng": 7.110039004,
            "name": "saarbrucken"
        }
    },
    {
        "origin": {
            "lat": 48.23964126,
            "lng": 14.19116693,
            "name": "linz"
        },
        "destination": {
            "lat": 48.68745178,
            "lng": 9.205711172,
            "name": "stuttgart"
        }
    },
    {
        "origin": {
            "lat": 48.23964126,
            "lng": 14.19116693,
            "name": "linz"
        },
        "destination": {
            "lat": 37.9371091,
            "lng": 23.94884188,
            "name": "athens-international"
        }
    },
    {
        "origin": {
            "lat": 48.23964126,
            "lng": 14.19116693,
            "name": "linz"
        },
        "destination": {
            "lat": 40.52064287,
            "lng": 22.97082858,
            "name": "thessaloniki-international-airport-macedonia"
        }
    },
    {
        "origin": {
            "lat": 48.23964126,
            "lng": 14.19116693,
            "name": "linz"
        },
        "destination": {
            "lat": 47.43474239,
            "lng": 19.25864567,
            "name": "budapest-ferenc-liszt-international"
        }
    },
    {
        "origin": {
            "lat": 48.23964126,
            "lng": 14.19116693,
            "name": "linz"
        },
        "destination": {
            "lat": 41.13757561,
            "lng": 16.76445302,
            "name": "bari-karol-wojtyla"
        }
    },
    {
        "origin": {
            "lat": 48.23964126,
            "lng": 14.19116693,
            "name": "linz"
        },
        "destination": {
            "lat": 44.53521722,
            "lng": 11.28643204,
            "name": "bologna-guglielmo-marconi"
        }
    },
    {
        "origin": {
            "lat": 48.23964126,
            "lng": 14.19116693,
            "name": "linz"
        },
        "destination": {
            "lat": 45.39645445,
            "lng": 10.88554145,
            "name": "verona-villafranca"
        }
    },
    {
        "origin": {
            "lat": 48.23964126,
            "lng": 14.19116693,
            "name": "linz"
        },
        "destination": {
            "lat": 37.4675591,
            "lng": 15.06441942,
            "name": "catania-fontanarossa"
        }
    },
    {
        "origin": {
            "lat": 48.23964126,
            "lng": 14.19116693,
            "name": "linz"
        },
        "destination": {
            "lat": 43.80836015,
            "lng": 11.20157676,
            "name": "florence"
        }
    },
    {
        "origin": {
            "lat": 48.23964126,
            "lng": 14.19116693,
            "name": "linz"
        },
        "destination": {
            "lat": 44.41525104,
            "lng": 8.849758266,
            "name": "genoa-cristoforo-colombo"
        }
    },
    {
        "origin": {
            "lat": 48.23964126,
            "lng": 14.19116693,
            "name": "linz"
        },
        "destination": {
            "lat": 45.45286989,
            "lng": 9.27615049,
            "name": "linate"
        }
    },
    {
        "origin": {
            "lat": 48.23964126,
            "lng": 14.19116693,
            "name": "linz"
        },
        "destination": {
            "lat": 40.88487105,
            "lng": 14.28853633,
            "name": "naples-international"
        }
    },
    {
        "origin": {
            "lat": 48.23964126,
            "lng": 14.19116693,
            "name": "linz"
        },
        "destination": {
            "lat": 38.17955418,
            "lng": 13.09929019,
            "name": "falcone-borsellino"
        }
    },
    {
        "origin": {
            "lat": 48.23964126,
            "lng": 14.19116693,
            "name": "linz"
        },
        "destination": {
            "lat": 41.80379504,
            "lng": 12.25229173,
            "name": "leonardo-da-vinci-fiumicino"
        }
    },
    {
        "origin": {
            "lat": 48.23964126,
            "lng": 14.19116693,
            "name": "linz"
        },
        "destination": {
            "lat": 45.19681545,
            "lng": 7.647018693,
            "name": "turin"
        }
    },
    {
        "origin": {
            "lat": 48.23964126,
            "lng": 14.19116693,
            "name": "linz"
        },
        "destination": {
            "lat": 45.50443652,
            "lng": 12.34777319,
            "name": "venice-marco-polo"
        }
    },
    {
        "origin": {
            "lat": 48.23964126,
            "lng": 14.19116693,
            "name": "linz"
        },
        "destination": {
            "lat": 45.39676888,
            "lng": 10.8859908,
            "name": "verona-villafranca"
        }
    },
    {
        "origin": {
            "lat": 48.23964126,
            "lng": 14.19116693,
            "name": "linz"
        },
        "destination": {
            "lat": 42.5747534,
            "lng": 21.0308741,
            "name": "pristina-international"
        }
    },
    {
        "origin": {
            "lat": 48.23964126,
            "lng": 14.19116693,
            "name": "linz"
        },
        "destination": {
            "lat": 56.92302427,
            "lng": 23.97128515,
            "name": "riga-international"
        }
    },
    {
        "origin": {
            "lat": 48.23964126,
            "lng": 14.19116693,
            "name": "linz"
        },
        "destination": {
            "lat": 54.63809245,
            "lng": 25.28489528,
            "name": "vilnius"
        }
    },
    {
        "origin": {
            "lat": 48.23964126,
            "lng": 14.19116693,
            "name": "linz"
        },
        "destination": {
            "lat": 49.625634,
            "lng": 6.208076725,
            "name": "luxembourg"
        }
    },
    {
        "origin": {
            "lat": 48.23964126,
            "lng": 14.19116693,
            "name": "linz"
        },
        "destination": {
            "lat": 41.96099959,
            "lng": 21.62681239,
            "name": "skopje-alexander-the-great"
        }
    },
    {
        "origin": {
            "lat": 48.23964126,
            "lng": 14.19116693,
            "name": "linz"
        },
        "destination": {
            "lat": 46.93400226,
            "lng": 28.93338427,
            "name": "chisinau-international"
        }
    },
    {
        "origin": {
            "lat": 48.23964126,
            "lng": 14.19116693,
            "name": "linz"
        },
        "destination": {
            "lat": 42.36780184,
            "lng": 19.25169196,
            "name": "podgorica"
        }
    },
    {
        "origin": {
            "lat": 48.23964126,
            "lng": 14.19116693,
            "name": "linz"
        },
        "destination": {
            "lat": 60.29220631,
            "lng": 5.221732401,
            "name": "bergen-airport"
        }
    },
    {
        "origin": {
            "lat": 48.23964126,
            "lng": 14.19116693,
            "name": "linz"
        },
        "destination": {
            "lat": 60.19501032,
            "lng": 11.09753062,
            "name": "oslo-airport"
        }
    },
    {
        "origin": {
            "lat": 48.23964126,
            "lng": 14.19116693,
            "name": "linz"
        },
        "destination": {
            "lat": 54.37948335,
            "lng": 18.46623417,
            "name": "gdansk-lech-walesa"
        }
    },
    {
        "origin": {
            "lat": 48.23964126,
            "lng": 14.19116693,
            "name": "linz"
        },
        "destination": {
            "lat": 50.07758305,
            "lng": 19.78674673,
            "name": "john-paul-ii-international-airport-krakow-balice"
        }
    },
    {
        "origin": {
            "lat": 48.23964126,
            "lng": 14.19116693,
            "name": "linz"
        },
        "destination": {
            "lat": 50.07758305,
            "lng": 19.78674673,
            "name": "john-paul-ii-international-airport-krakow-balice"
        }
    },
    {
        "origin": {
            "lat": 48.23964126,
            "lng": 14.19116693,
            "name": "linz"
        },
        "destination": {
            "lat": 51.72084301,
            "lng": 19.39494274,
            "name": "lodz-wladyslaw-reymont"
        }
    },
    {
        "origin": {
            "lat": 48.23964126,
            "lng": 14.19116693,
            "name": "linz"
        },
        "destination": {
            "lat": 51.23719306,
            "lng": 22.71265524,
            "name": "lublin"
        }
    },
    {
        "origin": {
            "lat": 48.23964126,
            "lng": 14.19116693,
            "name": "linz"
        },
        "destination": {
            "lat": 52.42056505,
            "lng": 16.82793865,
            "name": "poznan-lawica"
        }
    },
    {
        "origin": {
            "lat": 48.23964126,
            "lng": 14.19116693,
            "name": "linz"
        },
        "destination": {
            "lat": 50.11424137,
            "lng": 22.02400823,
            "name": "rzeszow-jasionka"
        }
    },
    {
        "origin": {
            "lat": 48.23964126,
            "lng": 14.19116693,
            "name": "linz"
        },
        "destination": {
            "lat": 52.16751858,
            "lng": 20.96607839,
            "name": "warsaw-chopin"
        }
    },
    {
        "origin": {
            "lat": 48.23964126,
            "lng": 14.19116693,
            "name": "linz"
        },
        "destination": {
            "lat": 51.10611032,
            "lng": 16.87907565,
            "name": "copernicus-airport-wroclaw"
        }
    },
    {
        "origin": {
            "lat": 48.23964126,
            "lng": 14.19116693,
            "name": "linz"
        },
        "destination": {
            "lat": 38.77652215,
            "lng": -9.137324464,
            "name": "lisbon-portela"
        }
    },
    {
        "origin": {
            "lat": 48.23964126,
            "lng": 14.19116693,
            "name": "linz"
        },
        "destination": {
            "lat": 41.24167551,
            "lng": -8.679150062,
            "name": "porto"
        }
    },
    {
        "origin": {
            "lat": 48.23964126,
            "lng": 14.19116693,
            "name": "linz"
        },
        "destination": {
            "lat": 44.57036759,
            "lng": 26.08592959,
            "name": "henri-coanda-international"
        }
    },
    {
        "origin": {
            "lat": 48.23964126,
            "lng": 14.19116693,
            "name": "linz"
        },
        "destination": {
            "lat": 46.78336758,
            "lng": 23.68672898,
            "name": "cluj-international-cluj"
        }
    },
    {
        "origin": {
            "lat": 48.23964126,
            "lng": 14.19116693,
            "name": "linz"
        },
        "destination": {
            "lat": 47.17686421,
            "lng": 27.61872184,
            "name": "iasi-international"
        }
    },
    {
        "origin": {
            "lat": 48.23964126,
            "lng": 14.19116693,
            "name": "linz"
        },
        "destination": {
            "lat": 44.82173163,
            "lng": 20.29111599,
            "name": "belgrade-nikola-tesla"
        }
    },
    {
        "origin": {
            "lat": 48.23964126,
            "lng": 14.19116693,
            "name": "linz"
        },
        "destination": {
            "lat": 48.17112892,
            "lng": 17.2106461,
            "name": "bratislava"
        }
    },
    {
        "origin": {
            "lat": 48.23964126,
            "lng": 14.19116693,
            "name": "linz"
        },
        "destination": {
            "lat": 48.67297651,
            "lng": 21.23829483,
            "name": "kosice-international"
        }
    },
    {
        "origin": {
            "lat": 48.23964126,
            "lng": 14.19116693,
            "name": "linz"
        },
        "destination": {
            "lat": 46.2274106,
            "lng": 14.45189459,
            "name": "ljubljana-joze-pucnik"
        }
    },
    {
        "origin": {
            "lat": 48.23964126,
            "lng": 14.19116693,
            "name": "linz"
        },
        "destination": {
            "lat": 41.29898632,
            "lng": 2.083383804,
            "name": "barcelona-el-prat"
        }
    },
    {
        "origin": {
            "lat": 48.23964126,
            "lng": 14.19116693,
            "name": "linz"
        },
        "destination": {
            "lat": 43.30302036,
            "lng": -2.907000521,
            "name": "bilbao"
        }
    },
    {
        "origin": {
            "lat": 48.23964126,
            "lng": 14.19116693,
            "name": "linz"
        },
        "destination": {
            "lat": 40.49882187,
            "lng": -3.568455978,
            "name": "adolfo-suarez-madrid-barajas"
        }
    },
    {
        "origin": {
            "lat": 48.23964126,
            "lng": 14.19116693,
            "name": "linz"
        },
        "destination": {
            "lat": 37.419886,
            "lng": -5.894691156,
            "name": "seville"
        }
    },
    {
        "origin": {
            "lat": 48.23964126,
            "lng": 14.19116693,
            "name": "linz"
        },
        "destination": {
            "lat": 39.48950604,
            "lng": -0.480022024,
            "name": "valencia"
        }
    },
    {
        "origin": {
            "lat": 48.23964126,
            "lng": 14.19116693,
            "name": "linz"
        },
        "destination": {
            "lat": 41.66557509,
            "lng": -1.050087204,
            "name": "zaragoza"
        }
    },
    {
        "origin": {
            "lat": 48.23964126,
            "lng": 14.19116693,
            "name": "linz"
        },
        "destination": {
            "lat": 57.67140854,
            "lng": 12.28730406,
            "name": "goteborg-landvetter"
        }
    },
    {
        "origin": {
            "lat": 48.23964126,
            "lng": 14.19116693,
            "name": "linz"
        },
        "destination": {
            "lat": 59.65012578,
            "lng": 17.92282716,
            "name": "stockholm-arlanda"
        }
    },
    {
        "origin": {
            "lat": 48.23964126,
            "lng": 14.19116693,
            "name": "linz"
        },
        "destination": {
            "lat": 47.59801059,
            "lng": 7.523736116,
            "name": "euroairport-basel-mulhouse-freiburg"
        }
    },
    {
        "origin": {
            "lat": 48.23964126,
            "lng": 14.19116693,
            "name": "linz"
        },
        "destination": {
            "lat": 46.23690511,
            "lng": 6.10824207,
            "name": "geneva"
        }
    },
    {
        "origin": {
            "lat": 48.23964126,
            "lng": 14.19116693,
            "name": "linz"
        },
        "destination": {
            "lat": 47.46144231,
            "lng": 8.552618604,
            "name": "zurich"
        }
    },
    {
        "origin": {
            "lat": 48.23964126,
            "lng": 14.19116693,
            "name": "linz"
        },
        "destination": {
            "lat": 52.31962357,
            "lng": 4.739179704,
            "name": "amsterdam-airport-schiphol"
        }
    },
    {
        "origin": {
            "lat": 48.23964126,
            "lng": 14.19116693,
            "name": "linz"
        },
        "destination": {
            "lat": 51.45791473,
            "lng": 5.390808879,
            "name": "eindhoven"
        }
    },
    {
        "origin": {
            "lat": 48.23964126,
            "lng": 14.19116693,
            "name": "linz"
        },
        "destination": {
            "lat": 52.31962357,
            "lng": 4.739179704,
            "name": "amsterdam-airport-schiphol"
        }
    },
    {
        "origin": {
            "lat": 48.23964126,
            "lng": 14.19116693,
            "name": "linz"
        },
        "destination": {
            "lat": 52.31962357,
            "lng": 4.739179704,
            "name": "amsterdam-airport-schiphol"
        }
    },
    {
        "origin": {
            "lat": 48.23964126,
            "lng": 14.19116693,
            "name": "linz"
        },
        "destination": {
            "lat": 52.45193167,
            "lng": -1.744244238,
            "name": "birmingham"
        }
    },
    {
        "origin": {
            "lat": 48.23964126,
            "lng": 14.19116693,
            "name": "linz"
        },
        "destination": {
            "lat": 55.95122361,
            "lng": -3.363094563,
            "name": "edinburgh"
        }
    },
    {
        "origin": {
            "lat": 48.23964126,
            "lng": 14.19116693,
            "name": "linz"
        },
        "destination": {
            "lat": 55.86912858,
            "lng": -4.435405793,
            "name": "glasgow"
        }
    },
    {
        "origin": {
            "lat": 48.23964126,
            "lng": 14.19116693,
            "name": "linz"
        },
        "destination": {
            "lat": 53.86758182,
            "lng": -1.661159299,
            "name": "leeds-bradford"
        }
    },
    {
        "origin": {
            "lat": 48.23964126,
            "lng": 14.19116693,
            "name": "linz"
        },
        "destination": {
            "lat": 53.33553879,
            "lng": -2.853859333,
            "name": "liverpool-john-lennon"
        }
    },
    {
        "origin": {
            "lat": 48.23964126,
            "lng": 14.19116693,
            "name": "linz"
        },
        "destination": {
            "lat": 51.46980043,
            "lng": -0.454454405,
            "name": "heathrow"
        }
    },
    {
        "origin": {
            "lat": 48.23964126,
            "lng": 14.19116693,
            "name": "linz"
        },
        "destination": {
            "lat": 53.33553879,
            "lng": -2.853859333,
            "name": "liverpool-john-lennon"
        }
    },
    {
        "origin": {
            "lat": 48.23964126,
            "lng": 14.19116693,
            "name": "linz"
        },
        "destination": {
            "lat": 55.03825989,
            "lng": -1.690185611,
            "name": "newcastle"
        }
    },
    {
        "origin": {
            "lat": 48.11243339,
            "lng": 16.57483798,
            "name": "vienna-international"
        },
        "destination": {
            "lat": 41.41843843,
            "lng": 19.71341944,
            "name": "tirana-international-airport-nene-tereza"
        }
    },
    {
        "origin": {
            "lat": 48.11243339,
            "lng": 16.57483798,
            "name": "vienna-international"
        },
        "destination": {
            "lat": 48.23964126,
            "lng": 14.19116693,
            "name": "linz"
        }
    },
    {
        "origin": {
            "lat": 48.11243339,
            "lng": 16.57483798,
            "name": "vienna-international"
        },
        "destination": {
            "lat": 50.90207279,
            "lng": 4.482947232,
            "name": "brussels"
        }
    },
    {
        "origin": {
            "lat": 48.11243339,
            "lng": 16.57483798,
            "name": "vienna-international"
        },
        "destination": {
            "lat": 50.46239012,
            "lng": 4.45938871,
            "name": "brussels-south-charleroi"
        }
    },
    {
        "origin": {
            "lat": 48.11243339,
            "lng": 16.57483798,
            "name": "vienna-international"
        },
        "destination": {
            "lat": 50.90207279,
            "lng": 4.482947232,
            "name": "brussels"
        }
    },
    {
        "origin": {
            "lat": 48.11243339,
            "lng": 16.57483798,
            "name": "vienna-international"
        },
        "destination": {
            "lat": 50.46239012,
            "lng": 4.45938871,
            "name": "brussels-south-charleroi"
        }
    },
    {
        "origin": {
            "lat": 48.11243339,
            "lng": 16.57483798,
            "name": "vienna-international"
        },
        "destination": {
            "lat": 43.82622396,
            "lng": 18.33687115,
            "name": "sarajevo-international"
        }
    },
    {
        "origin": {
            "lat": 48.11243339,
            "lng": 16.57483798,
            "name": "vienna-international"
        },
        "destination": {
            "lat": 42.68883587,
            "lng": 23.41475799,
            "name": "sofia"
        }
    },
    {
        "origin": {
            "lat": 48.11243339,
            "lng": 16.57483798,
            "name": "vienna-international"
        },
        "destination": {
            "lat": 45.74078032,
            "lng": 16.06633153,
            "name": "zagreb"
        }
    },
    {
        "origin": {
            "lat": 48.11243339,
            "lng": 16.57483798,
            "name": "vienna-international"
        },
        "destination": {
            "lat": 49.1522874,
            "lng": 16.6928681,
            "name": "brno-turany"
        }
    },
    {
        "origin": {
            "lat": 48.11243339,
            "lng": 16.57483798,
            "name": "vienna-international"
        },
        "destination": {
            "lat": 50.10266879,
            "lng": 14.26200554,
            "name": "vaclav-havel-airport-prague"
        }
    },
    {
        "origin": {
            "lat": 48.11243339,
            "lng": 16.57483798,
            "name": "vienna-international"
        },
        "destination": {
            "lat": 56.30736937,
            "lng": 10.62742741,
            "name": "aarhus"
        }
    },
    {
        "origin": {
            "lat": 48.11243339,
            "lng": 16.57483798,
            "name": "vienna-international"
        },
        "destination": {
            "lat": 55.61218241,
            "lng": 12.64594781,
            "name": "copenhagen"
        }
    },
    {
        "origin": {
            "lat": 48.11243339,
            "lng": 16.57483798,
            "name": "vienna-international"
        },
        "destination": {
            "lat": 59.41396371,
            "lng": 24.82100989,
            "name": "tallinn"
        }
    },
    {
        "origin": {
            "lat": 48.11243339,
            "lng": 16.57483798,
            "name": "vienna-international"
        },
        "destination": {
            "lat": 60.31789256,
            "lng": 24.94980032,
            "name": "helsinki"
        }
    },
    {
        "origin": {
            "lat": 48.11243339,
            "lng": 16.57483798,
            "name": "vienna-international"
        },
        "destination": {
            "lat": 44.82954442,
            "lng": -0.713848719,
            "name": "bordeaux-merignac"
        }
    },
    {
        "origin": {
            "lat": 48.11243339,
            "lng": 16.57483798,
            "name": "vienna-international"
        },
        "destination": {
            "lat": 45.36291249,
            "lng": 5.329801127,
            "name": "alpes-isere"
        }
    },
    {
        "origin": {
            "lat": 48.11243339,
            "lng": 16.57483798,
            "name": "vienna-international"
        },
        "destination": {
            "lat": 50.5662597,
            "lng": 3.100232821,
            "name": "lille"
        }
    },
    {
        "origin": {
            "lat": 48.11243339,
            "lng": 16.57483798,
            "name": "vienna-international"
        },
        "destination": {
            "lat": 45.72346294,
            "lng": 5.08889179,
            "name": "lyon-saint-exupery"
        }
    },
    {
        "origin": {
            "lat": 48.11243339,
            "lng": 16.57483798,
            "name": "vienna-international"
        },
        "destination": {
            "lat": 43.43823641,
            "lng": 5.21352416,
            "name": "marseille-provence"
        }
    },
    {
        "origin": {
            "lat": 48.11243339,
            "lng": 16.57483798,
            "name": "vienna-international"
        },
        "destination": {
            "lat": 43.76300544,
            "lng": 4.420535477,
            "name": "nimes-ales-camargue-cevennes"
        }
    },
    {
        "origin": {
            "lat": 48.11243339,
            "lng": 16.57483798,
            "name": "vienna-international"
        },
        "destination": {
            "lat": 47.15764493,
            "lng": -1.607390316,
            "name": "nantes-atlantique"
        }
    },
    {
        "origin": {
            "lat": 48.11243339,
            "lng": 16.57483798,
            "name": "vienna-international"
        },
        "destination": {
            "lat": 43.65975334,
            "lng": 7.214028183,
            "name": "nice-cote-d-azur-international"
        }
    },
    {
        "origin": {
            "lat": 48.11243339,
            "lng": 16.57483798,
            "name": "vienna-international"
        },
        "destination": {
            "lat": 49.00828913,
            "lng": 2.550384072,
            "name": "charles-de-gaulle"
        }
    },
    {
        "origin": {
            "lat": 48.11243339,
            "lng": 16.57483798,
            "name": "vienna-international"
        },
        "destination": {
            "lat": 48.0707405,
            "lng": -1.725586542,
            "name": "rennes-saint-jacques"
        }
    },
    {
        "origin": {
            "lat": 48.11243339,
            "lng": 16.57483798,
            "name": "vienna-international"
        },
        "destination": {
            "lat": 48.77779916,
            "lng": 8.08287255,
            "name": "karlsruhe-baden-baden"
        }
    },
    {
        "origin": {
            "lat": 48.11243339,
            "lng": 16.57483798,
            "name": "vienna-international"
        },
        "destination": {
            "lat": 43.09561307,
            "lng": 6.148818236,
            "name": "toulon-hyeres"
        }
    },
    {
        "origin": {
            "lat": 48.11243339,
            "lng": 16.57483798,
            "name": "vienna-international"
        },
        "destination": {
            "lat": 43.62939862,
            "lng": 1.367837851,
            "name": "toulouse-blagnac"
        }
    },
    {
        "origin": {
            "lat": 48.11243339,
            "lng": 16.57483798,
            "name": "vienna-international"
        },
        "destination": {
            "lat": 50.86662955,
            "lng": 7.138957841,
            "name": "cologne-bonn"
        }
    },
    {
        "origin": {
            "lat": 48.11243339,
            "lng": 16.57483798,
            "name": "vienna-international"
        },
        "destination": {
            "lat": 52.36474242,
            "lng": 13.50960134,
            "name": "berlin-brandenburg"
        }
    },
    {
        "origin": {
            "lat": 48.11243339,
            "lng": 16.57483798,
            "name": "vienna-international"
        },
        "destination": {
            "lat": 53.04806814,
            "lng": 8.78473663,
            "name": "bremen"
        }
    },
    {
        "origin": {
            "lat": 48.11243339,
            "lng": 16.57483798,
            "name": "vienna-international"
        },
        "destination": {
            "lat": 51.13236833,
            "lng": 13.7662524,
            "name": "dresden"
        }
    },
    {
        "origin": {
            "lat": 48.11243339,
            "lng": 16.57483798,
            "name": "vienna-international"
        },
        "destination": {
            "lat": 51.28766157,
            "lng": 6.766062556,
            "name": "dusseldorf"
        }
    },
    {
        "origin": {
            "lat": 48.11243339,
            "lng": 16.57483798,
            "name": "vienna-international"
        },
        "destination": {
            "lat": 50.03784999,
            "lng": 8.561248945,
            "name": "frankfurt"
        }
    },
    {
        "origin": {
            "lat": 48.11243339,
            "lng": 16.57483798,
            "name": "vienna-international"
        },
        "destination": {
            "lat": 53.63336709,
            "lng": 9.995435842,
            "name": "hamburg"
        }
    },
    {
        "origin": {
            "lat": 48.11243339,
            "lng": 16.57483798,
            "name": "vienna-international"
        },
        "destination": {
            "lat": 52.46331889,
            "lng": 9.683620956,
            "name": "hannover"
        }
    },
    {
        "origin": {
            "lat": 48.11243339,
            "lng": 16.57483798,
            "name": "vienna-international"
        },
        "destination": {
            "lat": 48.77779916,
            "lng": 8.08287255,
            "name": "karlsruhe-baden-baden"
        }
    },
    {
        "origin": {
            "lat": 48.11243339,
            "lng": 16.57483798,
            "name": "vienna-international"
        },
        "destination": {
            "lat": 53.63336709,
            "lng": 9.995435842,
            "name": "hamburg"
        }
    },
    {
        "origin": {
            "lat": 48.11243339,
            "lng": 16.57483798,
            "name": "vienna-international"
        },
        "destination": {
            "lat": 51.41302084,
            "lng": 12.23123543,
            "name": "leipzig-halle"
        }
    },
    {
        "origin": {
            "lat": 48.11243339,
            "lng": 16.57483798,
            "name": "vienna-international"
        },
        "destination": {
            "lat": 50.03784999,
            "lng": 8.561248945,
            "name": "frankfurt"
        }
    },
    {
        "origin": {
            "lat": 48.11243339,
            "lng": 16.57483798,
            "name": "vienna-international"
        },
        "destination": {
            "lat": 48.35059566,
            "lng": 11.77536828,
            "name": "munich"
        }
    },
    {
        "origin": {
            "lat": 48.11243339,
            "lng": 16.57483798,
            "name": "vienna-international"
        },
        "destination": {
            "lat": 51.51779463,
            "lng": 7.611080026,
            "name": "dortmund"
        }
    },
    {
        "origin": {
            "lat": 48.11243339,
            "lng": 16.57483798,
            "name": "vienna-international"
        },
        "destination": {
            "lat": 49.21539581,
            "lng": 7.110039004,
            "name": "saarbrucken"
        }
    },
    {
        "origin": {
            "lat": 48.11243339,
            "lng": 16.57483798,
            "name": "vienna-international"
        },
        "destination": {
            "lat": 48.68745178,
            "lng": 9.205711172,
            "name": "stuttgart"
        }
    },
    {
        "origin": {
            "lat": 48.11243339,
            "lng": 16.57483798,
            "name": "vienna-international"
        },
        "destination": {
            "lat": 37.9371091,
            "lng": 23.94884188,
            "name": "athens-international"
        }
    },
    {
        "origin": {
            "lat": 48.11243339,
            "lng": 16.57483798,
            "name": "vienna-international"
        },
        "destination": {
            "lat": 40.52064287,
            "lng": 22.97082858,
            "name": "thessaloniki-international-airport-macedonia"
        }
    },
    {
        "origin": {
            "lat": 48.11243339,
            "lng": 16.57483798,
            "name": "vienna-international"
        },
        "destination": {
            "lat": 47.43474239,
            "lng": 19.25864567,
            "name": "budapest-ferenc-liszt-international"
        }
    },
    {
        "origin": {
            "lat": 48.11243339,
            "lng": 16.57483798,
            "name": "vienna-international"
        },
        "destination": {
            "lat": 41.13757561,
            "lng": 16.76445302,
            "name": "bari-karol-wojtyla"
        }
    },
    {
        "origin": {
            "lat": 48.11243339,
            "lng": 16.57483798,
            "name": "vienna-international"
        },
        "destination": {
            "lat": 44.53521722,
            "lng": 11.28643204,
            "name": "bologna-guglielmo-marconi"
        }
    },
    {
        "origin": {
            "lat": 48.11243339,
            "lng": 16.57483798,
            "name": "vienna-international"
        },
        "destination": {
            "lat": 45.66881294,
            "lng": 9.701314239,
            "name": "orio-al-serio-international"
        }
    },
    {
        "origin": {
            "lat": 48.11243339,
            "lng": 16.57483798,
            "name": "vienna-international"
        },
        "destination": {
            "lat": 37.4675591,
            "lng": 15.06441942,
            "name": "catania-fontanarossa"
        }
    },
    {
        "origin": {
            "lat": 48.11243339,
            "lng": 16.57483798,
            "name": "vienna-international"
        },
        "destination": {
            "lat": 43.80836015,
            "lng": 11.20157676,
            "name": "florence"
        }
    },
    {
        "origin": {
            "lat": 48.11243339,
            "lng": 16.57483798,
            "name": "vienna-international"
        },
        "destination": {
            "lat": 44.41525104,
            "lng": 8.849758266,
            "name": "genoa-cristoforo-colombo"
        }
    },
    {
        "origin": {
            "lat": 48.11243339,
            "lng": 16.57483798,
            "name": "vienna-international"
        },
        "destination": {
            "lat": 45.66881294,
            "lng": 9.701314239,
            "name": "orio-al-serio-international"
        }
    },
    {
        "origin": {
            "lat": 48.11243339,
            "lng": 16.57483798,
            "name": "vienna-international"
        },
        "destination": {
            "lat": 40.88487105,
            "lng": 14.28853633,
            "name": "naples-international"
        }
    },
    {
        "origin": {
            "lat": 48.11243339,
            "lng": 16.57483798,
            "name": "vienna-international"
        },
        "destination": {
            "lat": 38.17955418,
            "lng": 13.09929019,
            "name": "falcone-borsellino"
        }
    },
    {
        "origin": {
            "lat": 48.11243339,
            "lng": 16.57483798,
            "name": "vienna-international"
        },
        "destination": {
            "lat": 41.80379504,
            "lng": 12.25229173,
            "name": "leonardo-da-vinci-fiumicino"
        }
    },
    {
        "origin": {
            "lat": 48.11243339,
            "lng": 16.57483798,
            "name": "vienna-international"
        },
        "destination": {
            "lat": 45.19681545,
            "lng": 7.647018693,
            "name": "turin"
        }
    },
    {
        "origin": {
            "lat": 48.11243339,
            "lng": 16.57483798,
            "name": "vienna-international"
        },
        "destination": {
            "lat": 45.50443652,
            "lng": 12.34777319,
            "name": "venice-marco-polo"
        }
    },
    {
        "origin": {
            "lat": 48.11243339,
            "lng": 16.57483798,
            "name": "vienna-international"
        },
        "destination": {
            "lat": 45.39676888,
            "lng": 10.8859908,
            "name": "verona-villafranca"
        }
    },
    {
        "origin": {
            "lat": 48.11243339,
            "lng": 16.57483798,
            "name": "vienna-international"
        },
        "destination": {
            "lat": 42.5747534,
            "lng": 21.0308741,
            "name": "pristina-international"
        }
    },
    {
        "origin": {
            "lat": 48.11243339,
            "lng": 16.57483798,
            "name": "vienna-international"
        },
        "destination": {
            "lat": 56.92302427,
            "lng": 23.97128515,
            "name": "riga-international"
        }
    },
    {
        "origin": {
            "lat": 48.11243339,
            "lng": 16.57483798,
            "name": "vienna-international"
        },
        "destination": {
            "lat": 54.63809245,
            "lng": 25.28489528,
            "name": "vilnius"
        }
    },
    {
        "origin": {
            "lat": 48.11243339,
            "lng": 16.57483798,
            "name": "vienna-international"
        },
        "destination": {
            "lat": 49.625634,
            "lng": 6.208076725,
            "name": "luxembourg"
        }
    },
    {
        "origin": {
            "lat": 48.11243339,
            "lng": 16.57483798,
            "name": "vienna-international"
        },
        "destination": {
            "lat": 41.96099959,
            "lng": 21.62681239,
            "name": "skopje-alexander-the-great"
        }
    },
    {
        "origin": {
            "lat": 48.11243339,
            "lng": 16.57483798,
            "name": "vienna-international"
        },
        "destination": {
            "lat": 46.93400226,
            "lng": 28.93338427,
            "name": "chisinau-international"
        }
    },
    {
        "origin": {
            "lat": 48.11243339,
            "lng": 16.57483798,
            "name": "vienna-international"
        },
        "destination": {
            "lat": 42.36780184,
            "lng": 19.25169196,
            "name": "podgorica"
        }
    },
    {
        "origin": {
            "lat": 48.11243339,
            "lng": 16.57483798,
            "name": "vienna-international"
        },
        "destination": {
            "lat": 60.29220631,
            "lng": 5.221732401,
            "name": "bergen-airport"
        }
    },
    {
        "origin": {
            "lat": 48.11243339,
            "lng": 16.57483798,
            "name": "vienna-international"
        },
        "destination": {
            "lat": 60.19501032,
            "lng": 11.09753062,
            "name": "oslo-airport"
        }
    },
    {
        "origin": {
            "lat": 48.11243339,
            "lng": 16.57483798,
            "name": "vienna-international"
        },
        "destination": {
            "lat": 54.37948335,
            "lng": 18.46623417,
            "name": "gdansk-lech-walesa"
        }
    },
    {
        "origin": {
            "lat": 48.11243339,
            "lng": 16.57483798,
            "name": "vienna-international"
        },
        "destination": {
            "lat": 50.07758305,
            "lng": 19.78674673,
            "name": "john-paul-ii-international-airport-krakow-balice"
        }
    },
    {
        "origin": {
            "lat": 48.11243339,
            "lng": 16.57483798,
            "name": "vienna-international"
        },
        "destination": {
            "lat": 50.07758305,
            "lng": 19.78674673,
            "name": "john-paul-ii-international-airport-krakow-balice"
        }
    },
    {
        "origin": {
            "lat": 48.11243339,
            "lng": 16.57483798,
            "name": "vienna-international"
        },
        "destination": {
            "lat": 51.72084301,
            "lng": 19.39494274,
            "name": "lodz-wladyslaw-reymont"
        }
    },
    {
        "origin": {
            "lat": 48.11243339,
            "lng": 16.57483798,
            "name": "vienna-international"
        },
        "destination": {
            "lat": 51.23719306,
            "lng": 22.71265524,
            "name": "lublin"
        }
    },
    {
        "origin": {
            "lat": 48.11243339,
            "lng": 16.57483798,
            "name": "vienna-international"
        },
        "destination": {
            "lat": 52.42056505,
            "lng": 16.82793865,
            "name": "poznan-lawica"
        }
    },
    {
        "origin": {
            "lat": 48.11243339,
            "lng": 16.57483798,
            "name": "vienna-international"
        },
        "destination": {
            "lat": 50.11424137,
            "lng": 22.02400823,
            "name": "rzeszow-jasionka"
        }
    },
    {
        "origin": {
            "lat": 48.11243339,
            "lng": 16.57483798,
            "name": "vienna-international"
        },
        "destination": {
            "lat": 52.16751858,
            "lng": 20.96607839,
            "name": "warsaw-chopin"
        }
    },
    {
        "origin": {
            "lat": 48.11243339,
            "lng": 16.57483798,
            "name": "vienna-international"
        },
        "destination": {
            "lat": 51.10611032,
            "lng": 16.87907565,
            "name": "copernicus-airport-wroclaw"
        }
    },
    {
        "origin": {
            "lat": 48.11243339,
            "lng": 16.57483798,
            "name": "vienna-international"
        },
        "destination": {
            "lat": 38.77652215,
            "lng": -9.137324464,
            "name": "lisbon-portela"
        }
    },
    {
        "origin": {
            "lat": 48.11243339,
            "lng": 16.57483798,
            "name": "vienna-international"
        },
        "destination": {
            "lat": 41.24167551,
            "lng": -8.679150062,
            "name": "porto"
        }
    },
    {
        "origin": {
            "lat": 48.11243339,
            "lng": 16.57483798,
            "name": "vienna-international"
        },
        "destination": {
            "lat": 44.57036759,
            "lng": 26.08592959,
            "name": "henri-coanda-international"
        }
    },
    {
        "origin": {
            "lat": 48.11243339,
            "lng": 16.57483798,
            "name": "vienna-international"
        },
        "destination": {
            "lat": 46.78336758,
            "lng": 23.68672898,
            "name": "cluj-international-cluj"
        }
    },
    {
        "origin": {
            "lat": 48.11243339,
            "lng": 16.57483798,
            "name": "vienna-international"
        },
        "destination": {
            "lat": 47.17686421,
            "lng": 27.61872184,
            "name": "iasi-international"
        }
    },
    {
        "origin": {
            "lat": 48.11243339,
            "lng": 16.57483798,
            "name": "vienna-international"
        },
        "destination": {
            "lat": 44.82173163,
            "lng": 20.29111599,
            "name": "belgrade-nikola-tesla"
        }
    },
    {
        "origin": {
            "lat": 48.11243339,
            "lng": 16.57483798,
            "name": "vienna-international"
        },
        "destination": {
            "lat": 48.17112892,
            "lng": 17.2106461,
            "name": "bratislava"
        }
    },
    {
        "origin": {
            "lat": 48.11243339,
            "lng": 16.57483798,
            "name": "vienna-international"
        },
        "destination": {
            "lat": 48.67297651,
            "lng": 21.23829483,
            "name": "kosice-international"
        }
    },
    {
        "origin": {
            "lat": 48.11243339,
            "lng": 16.57483798,
            "name": "vienna-international"
        },
        "destination": {
            "lat": 46.2274106,
            "lng": 14.45189459,
            "name": "ljubljana-joze-pucnik"
        }
    },
    {
        "origin": {
            "lat": 48.11243339,
            "lng": 16.57483798,
            "name": "vienna-international"
        },
        "destination": {
            "lat": 41.29898632,
            "lng": 2.083383804,
            "name": "barcelona-el-prat"
        }
    },
    {
        "origin": {
            "lat": 48.11243339,
            "lng": 16.57483798,
            "name": "vienna-international"
        },
        "destination": {
            "lat": 42.88280448,
            "lng": -2.732977246,
            "name": "vitoria-vitoria"
        }
    },
    {
        "origin": {
            "lat": 48.11243339,
            "lng": 16.57483798,
            "name": "vienna-international"
        },
        "destination": {
            "lat": 40.49882187,
            "lng": -3.568455978,
            "name": "adolfo-suarez-madrid-barajas"
        }
    },
    {
        "origin": {
            "lat": 48.11243339,
            "lng": 16.57483798,
            "name": "vienna-international"
        },
        "destination": {
            "lat": 37.419886,
            "lng": -5.894691156,
            "name": "seville"
        }
    },
    {
        "origin": {
            "lat": 48.11243339,
            "lng": 16.57483798,
            "name": "vienna-international"
        },
        "destination": {
            "lat": 39.48950604,
            "lng": -0.480022024,
            "name": "valencia"
        }
    },
    {
        "origin": {
            "lat": 48.11243339,
            "lng": 16.57483798,
            "name": "vienna-international"
        },
        "destination": {
            "lat": 41.66557509,
            "lng": -1.050087204,
            "name": "zaragoza"
        }
    },
    {
        "origin": {
            "lat": 48.11243339,
            "lng": 16.57483798,
            "name": "vienna-international"
        },
        "destination": {
            "lat": 57.67140854,
            "lng": 12.28730406,
            "name": "goteborg-landvetter"
        }
    },
    {
        "origin": {
            "lat": 48.11243339,
            "lng": 16.57483798,
            "name": "vienna-international"
        },
        "destination": {
            "lat": 59.65012578,
            "lng": 17.92282716,
            "name": "stockholm-arlanda"
        }
    },
    {
        "origin": {
            "lat": 48.11243339,
            "lng": 16.57483798,
            "name": "vienna-international"
        },
        "destination": {
            "lat": 47.59801059,
            "lng": 7.523736116,
            "name": "euroairport-basel-mulhouse-freiburg"
        }
    },
    {
        "origin": {
            "lat": 48.11243339,
            "lng": 16.57483798,
            "name": "vienna-international"
        },
        "destination": {
            "lat": 46.23690511,
            "lng": 6.10824207,
            "name": "geneva"
        }
    },
    {
        "origin": {
            "lat": 48.11243339,
            "lng": 16.57483798,
            "name": "vienna-international"
        },
        "destination": {
            "lat": 47.46144231,
            "lng": 8.552618604,
            "name": "zurich"
        }
    },
    {
        "origin": {
            "lat": 48.11243339,
            "lng": 16.57483798,
            "name": "vienna-international"
        },
        "destination": {
            "lat": 52.31962357,
            "lng": 4.739179704,
            "name": "amsterdam-airport-schiphol"
        }
    },
    {
        "origin": {
            "lat": 48.11243339,
            "lng": 16.57483798,
            "name": "vienna-international"
        },
        "destination": {
            "lat": 51.45791473,
            "lng": 5.390808879,
            "name": "eindhoven"
        }
    },
    {
        "origin": {
            "lat": 48.11243339,
            "lng": 16.57483798,
            "name": "vienna-international"
        },
        "destination": {
            "lat": 51.95672767,
            "lng": 4.439722684,
            "name": "rotterdam-the-hague"
        }
    },
    {
        "origin": {
            "lat": 48.11243339,
            "lng": 16.57483798,
            "name": "vienna-international"
        },
        "destination": {
            "lat": 52.31962357,
            "lng": 4.739179704,
            "name": "amsterdam-airport-schiphol"
        }
    },
    {
        "origin": {
            "lat": 48.11243339,
            "lng": 16.57483798,
            "name": "vienna-international"
        },
        "destination": {
            "lat": 52.45193167,
            "lng": -1.744244238,
            "name": "birmingham"
        }
    },
    {
        "origin": {
            "lat": 48.11243339,
            "lng": 16.57483798,
            "name": "vienna-international"
        },
        "destination": {
            "lat": 55.95122361,
            "lng": -3.363094563,
            "name": "edinburgh"
        }
    },
    {
        "origin": {
            "lat": 48.11243339,
            "lng": 16.57483798,
            "name": "vienna-international"
        },
        "destination": {
            "lat": 55.86912858,
            "lng": -4.435405793,
            "name": "glasgow"
        }
    },
    {
        "origin": {
            "lat": 48.11243339,
            "lng": 16.57483798,
            "name": "vienna-international"
        },
        "destination": {
            "lat": 53.86758182,
            "lng": -1.661159299,
            "name": "leeds-bradford"
        }
    },
    {
        "origin": {
            "lat": 48.11243339,
            "lng": 16.57483798,
            "name": "vienna-international"
        },
        "destination": {
            "lat": 53.33553879,
            "lng": -2.853859333,
            "name": "liverpool-john-lennon"
        }
    },
    {
        "origin": {
            "lat": 48.11243339,
            "lng": 16.57483798,
            "name": "vienna-international"
        },
        "destination": {
            "lat": 51.15354077,
            "lng": -0.183642958,
            "name": "gatwick"
        }
    },
    {
        "origin": {
            "lat": 48.11243339,
            "lng": 16.57483798,
            "name": "vienna-international"
        },
        "destination": {
            "lat": 53.35423896,
            "lng": -2.27726934,
            "name": "manchester"
        }
    },
    {
        "origin": {
            "lat": 48.11243339,
            "lng": 16.57483798,
            "name": "vienna-international"
        },
        "destination": {
            "lat": 55.03825989,
            "lng": -1.690185611,
            "name": "newcastle"
        }
    },
    {
        "origin": {
            "lat": 50.90207279,
            "lng": 4.482947232,
            "name": "brussels"
        },
        "destination": {
            "lat": 41.41843843,
            "lng": 19.71341944,
            "name": "tirana-international-airport-nene-tereza"
        }
    },
    {
        "origin": {
            "lat": 50.90207279,
            "lng": 4.482947232,
            "name": "brussels"
        },
        "destination": {
            "lat": 48.23964126,
            "lng": 14.19116693,
            "name": "linz"
        }
    },
    {
        "origin": {
            "lat": 50.90207279,
            "lng": 4.482947232,
            "name": "brussels"
        },
        "destination": {
            "lat": 48.11243339,
            "lng": 16.57483798,
            "name": "vienna-international"
        }
    },
    {
        "origin": {
            "lat": 50.90207279,
            "lng": 4.482947232,
            "name": "brussels"
        },
        "destination": {
            "lat": 50.46239012,
            "lng": 4.45938871,
            "name": "brussels-south-charleroi"
        }
    },
    {
        "origin": {
            "lat": 50.90207279,
            "lng": 4.482947232,
            "name": "brussels"
        },
        "destination": {
            "lat": 50.46239012,
            "lng": 4.45938871,
            "name": "brussels-south-charleroi"
        }
    },
    {
        "origin": {
            "lat": 50.90207279,
            "lng": 4.482947232,
            "name": "brussels"
        },
        "destination": {
            "lat": 43.82622396,
            "lng": 18.33687115,
            "name": "sarajevo-international"
        }
    },
    {
        "origin": {
            "lat": 50.90207279,
            "lng": 4.482947232,
            "name": "brussels"
        },
        "destination": {
            "lat": 42.68883587,
            "lng": 23.41475799,
            "name": "sofia"
        }
    },
    {
        "origin": {
            "lat": 50.90207279,
            "lng": 4.482947232,
            "name": "brussels"
        },
        "destination": {
            "lat": 45.74078032,
            "lng": 16.06633153,
            "name": "zagreb"
        }
    },
    {
        "origin": {
            "lat": 50.90207279,
            "lng": 4.482947232,
            "name": "brussels"
        },
        "destination": {
            "lat": 49.1522874,
            "lng": 16.6928681,
            "name": "brno-turany"
        }
    },
    {
        "origin": {
            "lat": 50.90207279,
            "lng": 4.482947232,
            "name": "brussels"
        },
        "destination": {
            "lat": 50.10266879,
            "lng": 14.26200554,
            "name": "vaclav-havel-airport-prague"
        }
    },
    {
        "origin": {
            "lat": 50.90207279,
            "lng": 4.482947232,
            "name": "brussels"
        },
        "destination": {
            "lat": 56.30736937,
            "lng": 10.62742741,
            "name": "aarhus"
        }
    },
    {
        "origin": {
            "lat": 50.90207279,
            "lng": 4.482947232,
            "name": "brussels"
        },
        "destination": {
            "lat": 55.61218241,
            "lng": 12.64594781,
            "name": "copenhagen"
        }
    },
    {
        "origin": {
            "lat": 50.90207279,
            "lng": 4.482947232,
            "name": "brussels"
        },
        "destination": {
            "lat": 59.41396371,
            "lng": 24.82100989,
            "name": "tallinn"
        }
    },
    {
        "origin": {
            "lat": 50.90207279,
            "lng": 4.482947232,
            "name": "brussels"
        },
        "destination": {
            "lat": 60.31789256,
            "lng": 24.94980032,
            "name": "helsinki"
        }
    },
    {
        "origin": {
            "lat": 50.90207279,
            "lng": 4.482947232,
            "name": "brussels"
        },
        "destination": {
            "lat": 44.82954442,
            "lng": -0.713848719,
            "name": "bordeaux-merignac"
        }
    },