[
    {
        "origin": {
            "lat": 41.3268733,
            "lng": 19.8187913,
            "name": "Tirana"
        },
        "destination": {
            "lat": 41.3268733,
            "lng": 19.8187913,
            "name": "Tirana"
        }
    },
    {
        "origin": {
            "lat": 41.3268733,
            "lng": 19.8187913,
            "name": "Tirana"
        },
        "destination": {
            "lat": 48.3059078,
            "lng": 14.286198,
            "name": "Linz"
        }
    },
    {
        "origin": {
            "lat": 41.3268733,
            "lng": 19.8187913,
            "name": "Tirana"
        },
        "destination": {
            "lat": 48.2083537,
            "lng": 16.3725042,
            "name": "Vienna"
        }
    },
    {
        "origin": {
            "lat": 41.3268733,
            "lng": 19.8187913,
            "name": "Tirana"
        },
        "destination": {
            "lat": 51.2211097,
            "lng": 4.3997081,
            "name": "Antwerpen"
        }
    },
    {
        "origin": {
            "lat": 41.3268733,
            "lng": 19.8187913,
            "name": "Tirana"
        },
        "destination": {
            "lat": 50.8465573,
            "lng": 4.351697,
            "name": "Brussels"
        }
    },
    {
        "origin": {
            "lat": 41.3268733,
            "lng": 19.8187913,
            "name": "Tirana"
        },
        "destination": {
            "lat": 51.0538286,
            "lng": 3.7250121,
            "name": "Gent"
        }
    },
    {
        "origin": {
            "lat": 41.3268733,
            "lng": 19.8187913,
            "name": "Tirana"
        },
        "destination": {
            "lat": 50.6451381,
            "lng": 5.5734203,
            "name": "Liege"
        }
    },
    {
        "origin": {
            "lat": 41.3268733,
            "lng": 19.8187913,
            "name": "Tirana"
        },
        "destination": {
            "lat": 43.8519774,
            "lng": 18.3866868,
            "name": "Sarajevo"
        }
    },
    {
        "origin": {
            "lat": 41.3268733,
            "lng": 19.8187913,
            "name": "Tirana"
        },
        "destination": {
            "lat": 42.6978634,
            "lng": 23.3221789,
            "name": "Sofia"
        }
    },
    {
        "origin": {
            "lat": 41.3268733,
            "lng": 19.8187913,
            "name": "Tirana"
        },
        "destination": {
            "lat": 45.813177,
            "lng": 15.977048,
            "name": "Zagreb"
        }
    },
    {
        "origin": {
            "lat": 41.3268733,
            "lng": 19.8187913,
            "name": "Tirana"
        },
        "destination": {
            "lat": 49.1922443,
            "lng": 16.6113382,
            "name": "Brno"
        }
    },
    {
        "origin": {
            "lat": 41.3268733,
            "lng": 19.8187913,
            "name": "Tirana"
        },
        "destination": {
            "lat": 50.0874654,
            "lng": 14.4212535,
            "name": "Prague"
        }
    },
    {
        "origin": {
            "lat": 41.3268733,
            "lng": 19.8187913,
            "name": "Tirana"
        },
        "destination": {
            "lat": 56.1496278,
            "lng": 10.2134046,
            "name": "Arhus"
        }
    },
    {
        "origin": {
            "lat": 41.3268733,
            "lng": 19.8187913,
            "name": "Tirana"
        },
        "destination": {
            "lat": 55.6867243,
            "lng": 12.5700724,
            "name": "Copenhagen"
        }
    },
    {
        "origin": {
            "lat": 41.3268733,
            "lng": 19.8187913,
            "name": "Tirana"
        },
        "destination": {
            "lat": 59.4372155,
            "lng": 24.7453688,
            "name": "Tallinn"
        }
    },
    {
        "origin": {
            "lat": 41.3268733,
            "lng": 19.8187913,
            "name": "Tirana"
        },
        "destination": {
            "lat": 60.1674098,
            "lng": 24.9425769,
            "name": "Helsinki"
        }
    },
    {
        "origin": {
            "lat": 41.3268733,
            "lng": 19.8187913,
            "name": "Tirana"
        },
        "destination": {
            "lat": 44.841225,
            "lng": -0.5800364,
            "name": "Bordeaux"
        }
    },
    {
        "origin": {
            "lat": 41.3268733,
            "lng": 19.8187913,
            "name": "Tirana"
        },
        "destination": {
            "lat": 45.1875602,
            "lng": 5.7357819,
            "name": "Grenoble"
        }
    },
    {
        "origin": {
            "lat": 41.3268733,
            "lng": 19.8187913,
            "name": "Tirana"
        },
        "destination": {
            "lat": 50.6365654,
            "lng": 3.0635282,
            "name": "Lille"
        }
    },
    {
        "origin": {
            "lat": 41.3268733,
            "lng": 19.8187913,
            "name": "Tirana"
        },
        "destination": {
            "lat": 45.7578137,
            "lng": 4.8320114,
            "name": "Lyon"
        }
    },
    {
        "origin": {
            "lat": 41.3268733,
            "lng": 19.8187913,
            "name": "Tirana"
        },
        "destination": {
            "lat": 43.2961743,
            "lng": 5.3699525,
            "name": "Marseille"
        }
    },
    {
        "origin": {
            "lat": 41.3268733,
            "lng": 19.8187913,
            "name": "Tirana"
        },
        "destination": {
            "lat": 43.6112422,
            "lng": 3.8767337,
            "name": "Montpellier"
        }
    },
    {
        "origin": {
            "lat": 41.3268733,
            "lng": 19.8187913,
            "name": "Tirana"
        },
        "destination": {
            "lat": 47.2186371,
            "lng": -1.5541362,
            "name": "Nantes"
        }
    },
    {
        "origin": {
            "lat": 41.3268733,
            "lng": 19.8187913,
            "name": "Tirana"
        },
        "destination": {
            "lat": 43.7009358,
            "lng": 7.2683912,
            "name": "Nice"
        }
    },
    {
        "origin": {
            "lat": 41.3268733,
            "lng": 19.8187913,
            "name": "Tirana"
        },
        "destination": {
            "lat": 48.8566969,
            "lng": 2.3514616,
            "name": "Paris"
        }
    },
    {
        "origin": {
            "lat": 41.3268733,
            "lng": 19.8187913,
            "name": "Tirana"
        },
        "destination": {
            "lat": 48.1113387,
            "lng": -1.6800198,
            "name": "Rennes"
        }
    },
    {
        "origin": {
            "lat": 41.3268733,
            "lng": 19.8187913,
            "name": "Tirana"
        },
        "destination": {
            "lat": 48.584614,
            "lng": 7.7507127,
            "name": "Strasbourg"
        }
    },
    {
        "origin": {
            "lat": 41.3268733,
            "lng": 19.8187913,
            "name": "Tirana"
        },
        "destination": {
            "lat": 43.1257311,
            "lng": 5.9304919,
            "name": "Toulon"
        }
    },
    {
        "origin": {
            "lat": 41.3268733,
            "lng": 19.8187913,
            "name": "Tirana"
        },
        "destination": {
            "lat": 43.6044622,
            "lng": 1.4442469,
            "name": "Toulouse"
        }
    },
    {
        "origin": {
            "lat": 41.3268733,
            "lng": 19.8187913,
            "name": "Tirana"
        },
        "destination": {
            "lat": 50.776351,
            "lng": 6.083862,
            "name": "Aachen"
        }
    },
    {
        "origin": {
            "lat": 41.3268733,
            "lng": 19.8187913,
            "name": "Tirana"
        },
        "destination": {
            "lat": 52.5170365,
            "lng": 13.3888599,
            "name": "Berlin"
        }
    },
    {
        "origin": {
            "lat": 41.3268733,
            "lng": 19.8187913,
            "name": "Tirana"
        },
        "destination": {
            "lat": 53.0758196,
            "lng": 8.8071646,
            "name": "Bremen"
        }
    },
    {
        "origin": {
            "lat": 41.3268733,
            "lng": 19.8187913,
            "name": "Tirana"
        },
        "destination": {
            "lat": 51.0493286,
            "lng": 13.7381437,
            "name": "Dresden"
        }
    },
    {
        "origin": {
            "lat": 41.3268733,
            "lng": 19.8187913,
            "name": "Tirana"
        },
        "destination": {
            "lat": 51.2254018,
            "lng": 6.7763137,
            "name": "Dusseldorf"
        }
    },
    {
        "origin": {
            "lat": 41.3268733,
            "lng": 19.8187913,
            "name": "Tirana"
        },
        "destination": {
            "lat": 50.1106444,
            "lng": 8.6820917,
            "name": "Frankfurt Am Main"
        }
    },
    {
        "origin": {
            "lat": 41.3268733,
            "lng": 19.8187913,
            "name": "Tirana"
        },
        "destination": {
            "lat": 53.543766,
            "lng": 10.009915,
            "name": "Hamburg"
        }
    },
    {
        "origin": {
            "lat": 41.3268733,
            "lng": 19.8187913,
            "name": "Tirana"
        },
        "destination": {
            "lat": 52.379097,
            "lng": 9.742982,
            "name": "Hannover"
        }
    },
    {
        "origin": {
            "lat": 41.3268733,
            "lng": 19.8187913,
            "name": "Tirana"
        },
        "destination": {
            "lat": 49.0068725,
            "lng": 8.403475,
            "name": "Karlsruhe"
        }
    },
    {
        "origin": {
            "lat": 41.3268733,
            "lng": 19.8187913,
            "name": "Tirana"
        },
        "destination": {
            "lat": 54.3227085,
            "lng": 10.135555,
            "name": "Kiel"
        }
    },
    {
        "origin": {
            "lat": 41.3268733,
            "lng": 19.8187913,
            "name": "Tirana"
        },
        "destination": {
            "lat": 50.938361,
            "lng": 6.959974,
            "name": "Cologne"
        }
    },
    {
        "origin": {
            "lat": 41.3268733,
            "lng": 19.8187913,
            "name": "Tirana"
        },
        "destination": {
            "lat": 51.3406321,
            "lng": 12.3747329,
            "name": "Leipzig"
        }
    },
    {
        "origin": {
            "lat": 41.3268733,
            "lng": 19.8187913,
            "name": "Tirana"
        },
        "destination": {
            "lat": 49.489591,
            "lng": 8.467236,
            "name": "Mannheim"
        }
    },
    {
        "origin": {
            "lat": 41.3268733,
            "lng": 19.8187913,
            "name": "Tirana"
        },
        "destination": {
            "lat": 48.1371079,
            "lng": 11.5753822,
            "name": "Munich"
        }
    },
    {
        "origin": {
            "lat": 41.3268733,
            "lng": 19.8187913,
            "name": "Tirana"
        },
        "destination": {
            "lat": 51.4118742,
            "lng": 7.025698,
            "name": "Ruhrgebiet (Essen)"
        }
    },
    {
        "origin": {
            "lat": 41.3268733,
            "lng": 19.8187913,
            "name": "Tirana"
        },
        "destination": {
            "lat": 49.234362,
            "lng": 6.996379,
            "name": "Saarbrucken"
        }
    },
    {
        "origin": {
            "lat": 41.3268733,
            "lng": 19.8187913,
            "name": "Tirana"
        },
        "destination": {
            "lat": 48.7784485,
            "lng": 9.1800132,
            "name": "Stuttgart"
        }
    },
    {
        "origin": {
            "lat": 41.3268733,
            "lng": 19.8187913,
            "name": "Tirana"
        },
        "destination": {
            "lat": 37.9839412,
            "lng": 23.7283052,
            "name": "Athens"
        }
    },
    {
        "origin": {
            "lat": 41.3268733,
            "lng": 19.8187913,
            "name": "Tirana"
        },
        "destination": {
            "lat": 40.6403167,
            "lng": 22.9352716,
            "name": "Thessaloniki"
        }
    },
    {
        "origin": {
            "lat": 41.3268733,
            "lng": 19.8187913,
            "name": "Tirana"
        },
        "destination": {
            "lat": 47.4983815,
            "lng": 19.0404707,
            "name": "Budapest"
        }
    },
    {
        "origin": {
            "lat": 41.3268733,
            "lng": 19.8187913,
            "name": "Tirana"
        },
        "destination": {
            "lat": 41.1257843,
            "lng": 16.8620293,
            "name": "Bari"
        }
    },
    {
        "origin": {
            "lat": 41.3268733,
            "lng": 19.8187913,
            "name": "Tirana"
        },
        "destination": {
            "lat": 44.4936714,
            "lng": 11.3430347,
            "name": "Bologna"
        }
    },
    {
        "origin": {
            "lat": 41.3268733,
            "lng": 19.8187913,
            "name": "Tirana"
        },
        "destination": {
            "lat": 45.539841,
            "lng": 10.22296,
            "name": "Brescia"
        }
    },
    {
        "origin": {
            "lat": 41.3268733,
            "lng": 19.8187913,
            "name": "Tirana"
        },
        "destination": {
            "lat": 37.5022355,
            "lng": 15.08738,
            "name": "Catania"
        }
    },
    {
        "origin": {
            "lat": 41.3268733,
            "lng": 19.8187913,
            "name": "Tirana"
        },
        "destination": {
            "lat": 43.7698712,
            "lng": 11.2555757,
            "name": "Florence"
        }
    },
    {
        "origin": {
            "lat": 41.3268733,
            "lng": 19.8187913,
            "name": "Tirana"
        },
        "destination": {
            "lat": 44.40726,
            "lng": 8.9338624,
            "name": "Genoa"
        }
    },
    {
        "origin": {
            "lat": 41.3268733,
            "lng": 19.8187913,
            "name": "Tirana"
        },
        "destination": {
            "lat": 45.4668,
            "lng": 9.1905,
            "name": "Milano"
        }
    },
    {
        "origin": {
            "lat": 41.3268733,
            "lng": 19.8187913,
            "name": "Tirana"
        },
        "destination": {
            "lat": 40.8359336,
            "lng": 14.2487826,
            "name": "Napoli"
        }
    },
    {
        "origin": {
            "lat": 41.3268733,
            "lng": 19.8187913,
            "name": "Tirana"
        },
        "destination": {
            "lat": 38.1112268,
            "lng": 13.3524434,
            "name": "Palermo"
        }
    },
    {
        "origin": {
            "lat": 41.3268733,
            "lng": 19.8187913,
            "name": "Tirana"
        },
        "destination": {
            "lat": 41.8933203,
            "lng": 12.4829321,
            "name": "Rome"
        }
    },
    {
        "origin": {
            "lat": 41.3268733,
            "lng": 19.8187913,
            "name": "Tirana"
        },
        "destination": {
            "lat": 45.0677551,
            "lng": 7.6824892,
            "name": "Turin"
        }
    },
    {
        "origin": {
            "lat": 41.3268733,
            "lng": 19.8187913,
            "name": "Tirana"
        },
        "destination": {
            "lat": 45.43876,
            "lng": 12.327145,
            "name": "Venice"
        }
    },
    {
        "origin": {
            "lat": 41.3268733,
            "lng": 19.8187913,
            "name": "Tirana"
        },
        "destination": {
            "lat": 45.4384958,
            "lng": 10.9924122,
            "name": "Verona"
        }
    },
    {
        "origin": {
            "lat": 41.3268733,
            "lng": 19.8187913,
            "name": "Tirana"
        },
        "destination": {
            "lat": 42.6638771,
            "lng": 21.1640849,
            "name": "Pristina"
        }
    },
    {
        "origin": {
            "lat": 41.3268733,
            "lng": 19.8187913,
            "name": "Tirana"
        },
        "destination": {
            "lat": 56.9493977,
            "lng": 24.1051846,
            "name": "Riga"
        }
    },
    {
        "origin": {
            "lat": 41.3268733,
            "lng": 19.8187913,
            "name": "Tirana"
        },
        "destination": {
            "lat": 54.68199155,
            "lng": 25.25625728,
            "name": "Vilnius"
        }
    },
    {
        "origin": {
            "lat": 41.3268733,
            "lng": 19.8187913,
            "name": "Tirana"
        },
        "destination": {
            "lat": 49.8158683,
            "lng": 6.1296751,
            "name": "Luxembourg"
        }
    },
    {
        "origin": {
            "lat": 41.3268733,
            "lng": 19.8187913,
            "name": "Tirana"
        },
        "destination": {
            "lat": 41.9960924,
            "lng": 21.4316495,
            "name": "Skopje"
        }
    },
    {
        "origin": {
            "lat": 41.3268733,
            "lng": 19.8187913,
            "name": "Tirana"
        },
        "destination": {
            "lat": 47.0244707,
            "lng": 28.8322534,
            "name": "Chisinau"
        }
    },
    {
        "origin": {
            "lat": 41.3268733,
            "lng": 19.8187913,
            "name": "Tirana"
        },
        "destination": {
            "lat": 42.4415238,
            "lng": 19.2621081,
            "name": "Podgorica"
        }
    },
    {
        "origin": {
            "lat": 41.3268733,
            "lng": 19.8187913,
            "name": "Tirana"
        },
        "destination": {
            "lat": 60.3943055,
            "lng": 5.3259192,
            "name": "Bergen"
        }
    },
    {
        "origin": {
            "lat": 41.3268733,
            "lng": 19.8187913,
            "name": "Tirana"
        },
        "destination": {
            "lat": 59.9133301,
            "lng": 10.7389701,
            "name": "Oslo"
        }
    },
    {
        "origin": {
            "lat": 41.3268733,
            "lng": 19.8187913,
            "name": "Tirana"
        },
        "destination": {
            "lat": 54.347629,
            "lng": 18.6452324,
            "name": "Gdansk"
        }
    },
    {
        "origin": {
            "lat": 41.3268733,
            "lng": 19.8187913,
            "name": "Tirana"
        },
        "destination": {
            "lat": 50.2598987,
            "lng": 19.0215852,
            "name": "Katowice"
        }
    },
    {
        "origin": {
            "lat": 41.3268733,
            "lng": 19.8187913,
            "name": "Tirana"
        },
        "destination": {
            "lat": 50.0619474,
            "lng": 19.9368564,
            "name": "Krakow"
        }
    },
    {
        "origin": {
            "lat": 41.3268733,
            "lng": 19.8187913,
            "name": "Tirana"
        },
        "destination": {
            "lat": 51.7687323,
            "lng": 19.4569911,
            "name": "Lodz"
        }
    },
    {
        "origin": {
            "lat": 41.3268733,
            "lng": 19.8187913,
            "name": "Tirana"
        },
        "destination": {
            "lat": 51.2181945,
            "lng": 22.55467757,
            "name": "Lublin"
        }
    },
    {
        "origin": {
            "lat": 41.3268733,
            "lng": 19.8187913,
            "name": "Tirana"
        },
        "destination": {
            "lat": 52.40063215,
            "lng": 16.91978694,
            "name": "Poznan"
        }
    },
    {
        "origin": {
            "lat": 41.3268733,
            "lng": 19.8187913,
            "name": "Tirana"
        },
        "destination": {
            "lat": 50.00715125,
            "lng": 22.00991153,
            "name": "Rzeszow"
        }
    },
    {
        "origin": {
            "lat": 41.3268733,
            "lng": 19.8187913,
            "name": "Tirana"
        },
        "destination": {
            "lat": 52.2319581,
            "lng": 21.0067249,
            "name": "Warsaw"
        }
    },
    {
        "origin": {
            "lat": 41.3268733,
            "lng": 19.8187913,
            "name": "Tirana"
        },
        "destination": {
            "lat": 51.1263106,
            "lng": 16.97819633,
            "name": "Wroclaw"
        }
    },
    {
        "origin": {
            "lat": 41.3268733,
            "lng": 19.8187913,
            "name": "Tirana"
        },
        "destination": {
            "lat": 38.7077507,
            "lng": -9.1365919,
            "name": "Lisbon"
        }
    },
    {
        "origin": {
            "lat": 41.3268733,
            "lng": 19.8187913,
            "name": "Tirana"
        },
        "destination": {
            "lat": 41.1494512,
            "lng": -8.6107884,
            "name": "Porto"
        }
    },
    {
        "origin": {
            "lat": 41.3268733,
            "lng": 19.8187913,
            "name": "Tirana"
        },
        "destination": {
            "lat": 44.4361414,
            "lng": 26.1027202,
            "name": "Bucharest"
        }
    },
    {
        "origin": {
            "lat": 41.3268733,
            "lng": 19.8187913,
            "name": "Tirana"
        },
        "destination": {
            "lat": 46.769379,
            "lng": 23.5899542,
            "name": "Cluj-Napoca"
        }
    },
    {
        "origin": {
            "lat": 41.3268733,
            "lng": 19.8187913,
            "name": "Tirana"
        },
        "destination": {
            "lat": 47.1615341,
            "lng": 27.5836142,
            "name": "Iasi"
        }
    },
    {
        "origin": {
            "lat": 41.3268733,
            "lng": 19.8187913,
            "name": "Tirana"
        },
        "destination": {
            "lat": 44.8178131,
            "lng": 20.4568974,
            "name": "Belgrade"
        }
    },
    {
        "origin": {
            "lat": 41.3268733,
            "lng": 19.8187913,
            "name": "Tirana"
        },
        "destination": {
            "lat": 48.1516988,
            "lng": 17.1093063,
            "name": "Bratislava"
        }
    },
    {
        "origin": {
            "lat": 41.3268733,
            "lng": 19.8187913,
            "name": "Tirana"
        },
        "destination": {
            "lat": 48.7172272,
            "lng": 21.2496774,
            "name": "Kosice"
        }
    },
    {
        "origin": {
            "lat": 41.3268733,
            "lng": 19.8187913,
            "name": "Tirana"
        },
        "destination": {
            "lat": 46.0499803,
            "lng": 14.5068602,
            "name": "Ljubljana"
        }
    },
    {
        "origin": {
            "lat": 41.3268733,
            "lng": 19.8187913,
            "name": "Tirana"
        },
        "destination": {
            "lat": 41.3828939,
            "lng": 2.1774322,
            "name": "Barcelona"
        }
    },
    {
        "origin": {
            "lat": 41.3268733,
            "lng": 19.8187913,
            "name": "Tirana"
        },
        "destination": {
            "lat": 43.2630051,
            "lng": -2.9349915,
            "name": "Bilbao"
        }
    },
    {
        "origin": {
            "lat": 41.3268733,
            "lng": 19.8187913,
            "name": "Tirana"
        },
        "destination": {
            "lat": 40.4167047,
            "lng": -3.7035825,
            "name": "Madrid"
        }
    },
    {
        "origin": {
            "lat": 41.3268733,
            "lng": 19.8187913,
            "name": "Tirana"
        },
        "destination": {
            "lat": 37.3886303,
            "lng": -5.9953403,
            "name": "Sevilla"
        }
    },
    {
        "origin": {
            "lat": 41.3268733,
            "lng": 19.8187913,
            "name": "Tirana"
        },
        "destination": {
            "lat": 39.466667,
            "lng": -0.375,
            "name": "Valencia"
        }
    },
    {
        "origin": {
            "lat": 41.3268733,
            "lng": 19.8187913,
            "name": "Tirana"
        },
        "destination": {
            "lat": 41.6521342,
            "lng": -0.8809428,
            "name": "Zaragoza"
        }
    },
    {
        "origin": {
            "lat": 41.3268733,
            "lng": 19.8187913,
            "name": "Tirana"
        },
        "destination": {
            "lat": 57.7072326,
            "lng": 11.9670171,
            "name": "Goteborg"
        }
    },
    {
        "origin": {
            "lat": 41.3268733,
            "lng": 19.8187913,
            "name": "Tirana"
        },
        "destination": {
            "lat": 59.3251172,
            "lng": 18.0710935,
            "name": "Stockholm"
        }
    },
    {
        "origin": {
            "lat": 41.3268733,
            "lng": 19.8187913,
            "name": "Tirana"
        },
        "destination": {
            "lat": 47.5581077,
            "lng": 7.5878261,
            "name": "Basel"
        }
    },
    {
        "origin": {
            "lat": 41.3268733,
            "lng": 19.8187913,
            "name": "Tirana"
        },
        "destination": {
            "lat": 46.2017559,
            "lng": 6.1466014,
            "name": "Geneva"
        }
    },
    {
        "origin": {
            "lat": 41.3268733,
            "lng": 19.8187913,
            "name": "Tirana"
        },
        "destination": {
            "lat": 47.3723941,
            "lng": 8.5423328,
            "name": "Zurich"
        }
    },
    {
        "origin": {
            "lat": 41.3268733,
            "lng": 19.8187913,
            "name": "Tirana"
        },
        "destination": {
            "lat": 52.3745403,
            "lng": 4.897975506,
            "name": "Amsterdam"
        }
    },
    {
        "origin": {
            "lat": 41.3268733,
            "lng": 19.8187913,
            "name": "Tirana"
        },
        "destination": {
            "lat": 51.44855695,
            "lng": 5.450122522,
            "name": "Eindhoven"
        }
    },
    {
        "origin": {
            "lat": 41.3268733,
            "lng": 19.8187913,
            "name": "Tirana"
        },
        "destination": {
            "lat": 51.9228958,
            "lng": 4.4631727,
            "name": "Rotterdam"
        }
    },
    {
        "origin": {
            "lat": 41.3268733,
            "lng": 19.8187913,
            "name": "Tirana"
        },
        "destination": {
            "lat": 52.0949753,
            "lng": 5.109708,
            "name": "Utrecht"
        }
    },
    {
        "origin": {
            "lat": 41.3268733,
            "lng": 19.8187913,
            "name": "Tirana"
        },
        "destination": {
            "lat": 52.4796992,
            "lng": -1.9026911,
            "name": "Birmingham"
        }
    },
    {
        "origin": {
            "lat": 41.3268733,
            "lng": 19.8187913,
            "name": "Tirana"
        },
        "destination": {
            "lat": 55.9533456,
            "lng": -3.1883749,
            "name": "Edinburgh"
        }
    },
    {
        "origin": {
            "lat": 41.3268733,
            "lng": 19.8187913,
            "name": "Tirana"
        },
        "destination": {
            "lat": 55.8609825,
            "lng": -4.2488787,
            "name": "Glasgow"
        }
    },
    {
        "origin": {
            "lat": 41.3268733,
            "lng": 19.8187913,
            "name": "Tirana"
        },
        "destination": {
            "lat": 53.7974185,
            "lng": -1.5437941,
            "name": "Leeds"
        }
    },
    {
        "origin": {
            "lat": 41.3268733,
            "lng": 19.8187913,
            "name": "Tirana"
        },
        "destination": {
            "lat": 53.407154,
            "lng": -2.991665,
            "name": "Liverpool"
        }
    },
    {
        "origin": {
            "lat": 41.3268733,
            "lng": 19.8187913,
            "name": "Tirana"
        },
        "destination": {
            "lat": 51.5073219,
            "lng": -0.1276474,
            "name": "London"
        }
    },
    {
        "origin": {
            "lat": 41.3268733,
            "lng": 19.8187913,
            "name": "Tirana"
        },
        "destination": {
            "lat": 53.4794892,
            "lng": -2.2451148,
            "name": "Manchester"
        }
    },
    {
        "origin": {
            "lat": 41.3268733,
            "lng": 19.8187913,
            "name": "Tirana"
        },
        "destination": {
            "lat": 54.9738474,
            "lng": -1.6131572,
            "name": "Newcastle Upon Tyne"
        }
    },
    {
        "origin": {
            "lat": 48.3059078,
            "lng": 14.286198,
            "name": "Linz"
        },
        "destination": {
            "lat": 41.3268733,
            "lng": 19.8187913,
            "name": "Tirana"
        }
    },
    {
        "origin": {
            "lat": 48.3059078,
            "lng": 14.286198,
            "name": "Linz"
        },
        "destination": {
            "lat": 48.3059078,
            "lng": 14.286198,
            "name": "Linz"
        }
    },
    {
        "origin": {
            "lat": 48.3059078,
            "lng": 14.286198,
            "name": "Linz"
        },
        "destination": {
            "lat": 48.2083537,
            "lng": 16.3725042,
            "name": "Vienna"
        }
    },
    {
        "origin": {
            "lat": 48.3059078,
            "lng": 14.286198,
            "name": "Linz"
        },
        "destination": {
            "lat": 51.2211097,
            "lng": 4.3997081,
            "name": "Antwerpen"
        }
    },
    {
        "origin": {
            "lat": 48.3059078,
            "lng": 14.286198,
            "name": "Linz"
        },
        "destination": {
            "lat": 50.8465573,
            "lng": 4.351697,
            "name": "Brussels"
        }
    },
    {
        "origin": {
            "lat": 48.3059078,
            "lng": 14.286198,
            "name": "Linz"
        },
        "destination": {
            "lat": 51.0538286,
            "lng": 3.7250121,
            "name": "Gent"
        }
    },
    {
        "origin": {
            "lat": 48.3059078,
            "lng": 14.286198,
            "name": "Linz"
        },
        "destination": {
            "lat": 50.6451381,
            "lng": 5.5734203,
            "name": "Liege"
        }
    },
    {
        "origin": {
            "lat": 48.3059078,
            "lng": 14.286198,
            "name": "Linz"
        },
        "destination": {
            "lat": 43.8519774,
            "lng": 18.3866868,
            "name": "Sarajevo"
        }
    },
    {
        "origin": {
            "lat": 48.3059078,
            "lng": 14.286198,
            "name": "Linz"
        },
        "destination": {
            "lat": 42.6978634,
            "lng": 23.3221789,
            "name": "Sofia"
        }
    },
    {
        "origin": {
            "lat": 48.3059078,
            "lng": 14.286198,
            "name": "Linz"
        },
        "destination": {
            "lat": 45.813177,
            "lng": 15.977048,
            "name": "Zagreb"
        }
    },
    {
        "origin": {
            "lat": 48.3059078,
            "lng": 14.286198,
            "name": "Linz"
        },
        "destination": {
            "lat": 49.1922443,
            "lng": 16.6113382,
            "name": "Brno"
        }
    },
    {
        "origin": {
            "lat": 48.3059078,
            "lng": 14.286198,
            "name": "Linz"
        },
        "destination": {
            "lat": 50.0874654,
            "lng": 14.4212535,
            "name": "Prague"
        }
    },
    {
        "origin": {
            "lat": 48.3059078,
            "lng": 14.286198,
            "name": "Linz"
        },
        "destination": {
            "lat": 56.1496278,
            "lng": 10.2134046,
            "name": "Arhus"
        }
    },
    {
        "origin": {
            "lat": 48.3059078,
            "lng": 14.286198,
            "name": "Linz"
        },
        "destination": {
            "lat": 55.6867243,
            "lng": 12.5700724,
            "name": "Copenhagen"
        }
    },
    {
        "origin": {
            "lat": 48.3059078,
            "lng": 14.286198,
            "name": "Linz"
        },
        "destination": {
            "lat": 59.4372155,
            "lng": 24.7453688,
            "name": "Tallinn"
        }
    },
    {
        "origin": {
            "lat": 48.3059078,
            "lng": 14.286198,
            "name": "Linz"
        },
        "destination": {
            "lat": 60.1674098,
            "lng": 24.9425769,
            "name": "Helsinki"
        }
    },
    {
        "origin": {
            "lat": 48.3059078,
            "lng": 14.286198,
            "name": "Linz"
        },
        "destination": {
            "lat": 44.841225,
            "lng": -0.5800364,
            "name": "Bordeaux"
        }
    },
    {
        "origin": {
            "lat": 48.3059078,
            "lng": 14.286198,
            "name": "Linz"
        },
        "destination": {
            "lat": 45.1875602,
            "lng": 5.7357819,
            "name": "Grenoble"
        }
    },
    {
        "origin": {
            "lat": 48.3059078,
            "lng": 14.286198,
            "name": "Linz"
        },
        "destination": {
            "lat": 50.6365654,
            "lng": 3.0635282,
            "name": "Lille"
        }
    },
    {
        "origin": {
            "lat": 48.3059078,
            "lng": 14.286198,
            "name": "Linz"
        },
        "destination": {
            "lat": 45.7578137,
            "lng": 4.8320114,
            "name": "Lyon"
        }
    },
    {
        "origin": {
            "lat": 48.3059078,
            "lng": 14.286198,
            "name": "Linz"
        },
        "destination": {
            "lat": 43.2961743,
            "lng": 5.3699525,
            "name": "Marseille"
        }
    },
    {
        "origin": {
            "lat": 48.3059078,
            "lng": 14.286198,
            "name": "Linz"
        },
        "destination": {
            "lat": 43.6112422,
            "lng": 3.8767337,
            "name": "Montpellier"
        }
    },
    {
        "origin": {
            "lat": 48.3059078,
            "lng": 14.286198,
            "name": "Linz"
        },
        "destination": {
            "lat": 47.2186371,
            "lng": -1.5541362,
            "name": "Nantes"
        }
    },
    {
        "origin": {
            "lat": 48.3059078,
            "lng": 14.286198,
            "name": "Linz"
        },
        "destination": {
            "lat": 43.7009358,
            "lng": 7.2683912,
            "name": "Nice"
        }
    },
    {
        "origin": {
            "lat": 48.3059078,
            "lng": 14.286198,
            "name": "Linz"
        },
        "destination": {
            "lat": 48.8566969,
            "lng": 2.3514616,
            "name": "Paris"
        }
    },
    {
        "origin": {
            "lat": 48.3059078,
            "lng": 14.286198,
            "name": "Linz"
        },
        "destination": {
            "lat": 48.1113387,
            "lng": -1.6800198,
            "name": "Rennes"
        }
    },
    {
        "origin": {
            "lat": 48.3059078,
            "lng": 14.286198,
            "name": "Linz"
        },
        "destination": {
            "lat": 48.584614,
            "lng": 7.7507127,
            "name": "Strasbourg"
        }
    },
    {
        "origin": {
            "lat": 48.3059078,
            "lng": 14.286198,
            "name": "Linz"
        },
        "destination": {
            "lat": 43.1257311,
            "lng": 5.9304919,
            "name": "Toulon"
        }
    },
    {
        "origin": {
            "lat": 48.3059078,
            "lng": 14.286198,
            "name": "Linz"
        },
        "destination": {
            "lat": 43.6044622,
            "lng": 1.4442469,
            "name": "Toulouse"
        }
    },
    {
        "origin": {
            "lat": 48.3059078,
            "lng": 14.286198,
            "name": "Linz"
        },
        "destination": {
            "lat": 50.776351,
            "lng": 6.083862,
            "name": "Aachen"
        }
    },
    {
        "origin": {
            "lat": 48.3059078,
            "lng": 14.286198,
            "name": "Linz"
        },
        "destination": {
            "lat": 52.5170365,
            "lng": 13.3888599,
            "name": "Berlin"
        }
    },
    {
        "origin": {
            "lat": 48.3059078,
            "lng": 14.286198,
            "name": "Linz"
        },
        "destination": {
            "lat": 53.0758196,
            "lng": 8.8071646,
            "name": "Bremen"
        }
    },
    {
        "origin": {
            "lat": 48.3059078,
            "lng": 14.286198,
            "name": "Linz"
        },
        "destination": {
            "lat": 51.0493286,
            "lng": 13.7381437,
            "name": "Dresden"
        }
    },
    {
        "origin": {
            "lat": 48.3059078,
            "lng": 14.286198,
            "name": "Linz"
        },
        "destination": {
            "lat": 51.2254018,
            "lng": 6.7763137,
            "name": "Dusseldorf"
        }
    },
    {
        "origin": {
            "lat": 48.3059078,
            "lng": 14.286198,
            "name": "Linz"
        },
        "destination": {
            "lat": 50.1106444,
            "lng": 8.6820917,
            "name": "Frankfurt Am Main"
        }
    },
    {
        "origin": {
            "lat": 48.3059078,
            "lng": 14.286198,
            "name": "Linz"
        },
        "destination": {
            "lat": 53.543766,
            "lng": 10.009915,
            "name": "Hamburg"
        }
    },
    {
        "origin": {
            "lat": 48.3059078,
            "lng": 14.286198,
            "name": "Linz"
        },
        "destination": {
            "lat": 52.379097,
            "lng": 9.742982,
            "name": "Hannover"
        }
    },
    {
        "origin": {
            "lat": 48.3059078,
            "lng": 14.286198,
            "name": "Linz"
        },
        "destination": {
            "lat": 49.0068725,
            "lng": 8.403475,
            "name": "Karlsruhe"
        }
    },
    {
        "origin": {
            "lat": 48.3059078,
            "lng": 14.286198,
            "name": "Linz"
        },
        "destination": {
            "lat": 54.3227085,
            "lng": 10.135555,
            "name": "Kiel"
        }
    },
    {
        "origin": {
            "lat": 48.3059078,
            "lng": 14.286198,
            "name": "Linz"
        },
        "destination": {
            "lat": 50.938361,
            "lng": 6.959974,
            "name": "Cologne"
        }
    },
    {
        "origin": {
            "lat": 48.3059078,
            "lng": 14.286198,
            "name": "Linz"
        },
        "destination": {
            "lat": 51.3406321,
            "lng": 12.3747329,
            "name": "Leipzig"
        }
    },
    {
        "origin": {
            "lat": 48.3059078,
            "lng": 14.286198,
            "name": "Linz"
        },
        "destination": {
            "lat": 49.489591,
            "lng": 8.467236,
            "name": "Mannheim"
        }
    },
    {
        "origin": {
            "lat": 48.3059078,
            "lng": 14.286198,
            "name": "Linz"
        },
        "destination": {
            "lat": 48.1371079,
            "lng": 11.5753822,
            "name": "Munich"
        }
    },
    {
        "origin": {
            "lat": 48.3059078,
            "lng": 14.286198,
            "name": "Linz"
        },
        "destination": {
            "lat": 51.4118742,
            "lng": 7.025698,
            "name": "Ruhrgebiet (Essen)"
        }
    },
    {
        "origin": {
            "lat": 48.3059078,
            "lng": 14.286198,
            "name": "Linz"
        },
        "destination": {
            "lat": 49.234362,
            "lng": 6.996379,
            "name": "Saarbrucken"
        }
    },
    {
        "origin": {
            "lat": 48.3059078,
            "lng": 14.286198,
            "name": "Linz"
        },
        "destination": {
            "lat": 48.7784485,
            "lng": 9.1800132,
            "name": "Stuttgart"
        }
    },
    {
        "origin": {
            "lat": 48.3059078,
            "lng": 14.286198,
            "name": "Linz"
        },
        "destination": {
            "lat": 37.9839412,
            "lng": 23.7283052,
            "name": "Athens"
        }
    },
    {
        "origin": {
            "lat": 48.3059078,
            "lng": 14.286198,
            "name": "Linz"
        },
        "destination": {
            "lat": 40.6403167,
            "lng": 22.9352716,
            "name": "Thessaloniki"
        }
    },
    {
        "origin": {
            "lat": 48.3059078,
            "lng": 14.286198,
            "name": "Linz"
        },
        "destination": {
            "lat": 47.4983815,
            "lng": 19.0404707,
            "name": "Budapest"
        }
    },
    {
        "origin": {
            "lat": 48.3059078,
            "lng": 14.286198,
            "name": "Linz"
        },
        "destination": {
            "lat": 41.1257843,
            "lng": 16.8620293,
            "name": "Bari"
        }
    },
    {
        "origin": {
            "lat": 48.3059078,
            "lng": 14.286198,
            "name": "Linz"
        },
        "destination": {
            "lat": 44.4936714,
            "lng": 11.3430347,
            "name": "Bologna"
        }
    },
    {
        "origin": {
            "lat": 48.3059078,
            "lng": 14.286198,
            "name": "Linz"
        },
        "destination": {
            "lat": 45.539841,
            "lng": 10.22296,
            "name": "Brescia"
        }
    },
    {
        "origin": {
            "lat": 48.3059078,
            "lng": 14.286198,
            "name": "Linz"
        },
        "destination": {
            "lat": 37.5022355,
            "lng": 15.08738,
            "name": "Catania"
        }
    },
    {
        "origin": {
            "lat": 48.3059078,
            "lng": 14.286198,
            "name": "Linz"
        },
        "destination": {
            "lat": 43.7698712,
            "lng": 11.2555757,
            "name": "Florence"
        }
    },
    {
        "origin": {
            "lat": 48.3059078,
            "lng": 14.286198,
            "name": "Linz"
        },
        "destination": {
            "lat": 44.40726,
            "lng": 8.9338624,
            "name": "Genoa"
        }
    },
    {
        "origin": {
            "lat": 48.3059078,
            "lng": 14.286198,
            "name": "Linz"
        },
        "destination": {
            "lat": 45.4668,
            "lng": 9.1905,
            "name": "Milano"
        }
    },
    {
        "origin": {
            "lat": 48.3059078,
            "lng": 14.286198,
            "name": "Linz"
        },
        "destination": {
            "lat": 40.8359336,
            "lng": 14.2487826,
            "name": "Napoli"
        }
    },
    {
        "origin": {
            "lat": 48.3059078,
            "lng": 14.286198,
            "name": "Linz"
        },
        "destination": {
            "lat": 38.1112268,
            "lng": 13.3524434,
            "name": "Palermo"
        }
    },
    {
        "origin": {
            "lat": 48.3059078,
            "lng": 14.286198,
            "name": "Linz"
        },
        "destination": {
            "lat": 41.8933203,
            "lng": 12.4829321,
            "name": "Rome"
        }
    },
    {
        "origin": {
            "lat": 48.3059078,
            "lng": 14.286198,
            "name": "Linz"
        },
        "destination": {
            "lat": 45.0677551,
            "lng": 7.6824892,
            "name": "Turin"
        }
    },
    {
        "origin": {
            "lat": 48.3059078,
            "lng": 14.286198,
            "name": "Linz"
        },
        "destination": {
            "lat": 45.43876,
            "lng": 12.327145,
            "name": "Venice"
        }
    },
    {
        "origin": {
            "lat": 48.3059078,
            "lng": 14.286198,
            "name": "Linz"
        },
        "destination": {
            "lat": 45.4384958,
            "lng": 10.9924122,
            "name": "Verona"
        }
    },
    {
        "origin": {
            "lat": 48.3059078,
            "lng": 14.286198,
            "name": "Linz"
        },
        "destination": {
            "lat": 42.6638771,
            "lng": 21.1640849,
            "name": "Pristina"
        }
    },
    {
        "origin": {
            "lat": 48.3059078,
            "lng": 14.286198,
            "name": "Linz"
        },
        "destination": {
            "lat": 56.9493977,
            "lng": 24.1051846,
            "name": "Riga"
        }
    },
    {
        "origin": {
            "lat": 48.3059078,
            "lng": 14.286198,
            "name": "Linz"
        },
        "destination": {
            "lat": 54.68199155,
            "lng": 25.25625728,
            "name": "Vilnius"
        }
    },
    {
        "origin": {
            "lat": 48.3059078,
            "lng": 14.286198,
            "name": "Linz"
        },
        "destination": {
            "lat": 49.8158683,
            "lng": 6.1296751,
            "name": "Luxembourg"
        }
    },
    {
        "origin": {
            "lat": 48.3059078,
            "lng": 14.286198,
            "name": "Linz"
        },
        "destination": {
            "lat": 41.9960924,
            "lng": 21.4316495,
            "name": "Skopje"
        }
    },
    {
        "origin": {
            "lat": 48.3059078,
            "lng": 14.286198,
            "name": "Linz"
        },
        "destination": {
            "lat": 47.0244707,
            "lng": 28.8322534,
            "name": "Chisinau"
        }
    },
    {
        "origin": {
            "lat": 48.3059078,
            "lng": 14.286198,
            "name": "Linz"
        },
        "destination": {
            "lat": 42.4415238,
            "lng": 19.2621081,
            "name": "Podgorica"
        }
    },
    {
        "origin": {
            "lat": 48.3059078,
            "lng": 14.286198,
            "name": "Linz"
        },
        "destination": {
            "lat": 60.3943055,
            "lng": 5.3259192,
            "name": "Bergen"
        }
    },
    {
        "origin": {
            "lat": 48.3059078,
            "lng": 14.286198,
            "name": "Linz"
        },
        "destination": {
            "lat": 59.9133301,
            "lng": 10.7389701,
            "name": "Oslo"
        }
    },
    {
        "origin": {
            "lat": 48.3059078,
            "lng": 14.286198,
            "name": "Linz"
        },
        "destination": {
            "lat": 54.347629,
            "lng": 18.6452324,
            "name": "Gdansk"
        }
    },
    {
        "origin": {
            "lat": 48.3059078,
            "lng": 14.286198,
            "name": "Linz"
        },
        "destination": {
            "lat": 50.2598987,
            "lng": 19.0215852,
            "name": "Katowice"
        }
    },
    {
        "origin": {
            "lat": 48.3059078,
            "lng": 14.286198,
            "name": "Linz"
        },
        "destination": {
            "lat": 50.0619474,
            "lng": 19.9368564,
            "name": "Krakow"
        }
    },
    {
        "origin": {
            "lat": 48.3059078,
            "lng": 14.286198,
            "name": "Linz"
        },
        "destination": {
            "lat": 51.7687323,
            "lng": 19.4569911,
            "name": "Lodz"
        }
    },
    {
        "origin": {
            "lat": 48.3059078,
            "lng": 14.286198,
            "name": "Linz"
        },
        "destination": {
            "lat": 51.2181945,
            "lng": 22.55467757,
            "name": "Lublin"
        }
    },
    {
        "origin": {
            "lat": 48.3059078,
            "lng": 14.286198,
            "name": "Linz"
        },
        "destination": {
            "lat": 52.40063215,
            "lng": 16.91978694,
            "name": "Poznan"
        }
    },
    {
        "origin": {
            "lat": 48.3059078,
            "lng": 14.286198,
            "name": "Linz"
        },
        "destination": {
            "lat": 50.00715125,
            "lng": 22.00991153,
            "name": "Rzeszow"
        }
    },
    {
        "origin": {
            "lat": 48.3059078,
            "lng": 14.286198,
            "name": "Linz"
        },
        "destination": {
            "lat": 52.2319581,
            "lng": 21.0067249,
            "name": "Warsaw"
        }
    },
    {
        "origin": {
            "lat": 48.3059078,
            "lng": 14.286198,
            "name": "Linz"
        },
        "destination": {
            "lat": 51.1263106,
            "lng": 16.97819633,
            "name": "Wroclaw"
        }
    },
    {
        "origin": {
            "lat": 48.3059078,
            "lng": 14.286198,
            "name": "Linz"
        },
        "destination": {
            "lat": 38.7077507,
            "lng": -9.1365919,
            "name": "Lisbon"
        }
    },
    {
        "origin": {
            "lat": 48.3059078,
            "lng": 14.286198,
            "name": "Linz"
        },
        "destination": {
            "lat": 41.1494512,
            "lng": -8.6107884,
            "name": "Porto"
        }
    },
    {
        "origin": {
            "lat": 48.3059078,
            "lng": 14.286198,
            "name": "Linz"
        },
        "destination": {
            "lat": 44.4361414,
            "lng": 26.1027202,
            "name": "Bucharest"
        }
    },
    {
        "origin": {
            "lat": 48.3059078,
            "lng": 14.286198,
            "name": "Linz"
        },
        "destination": {
            "lat": 46.769379,
            "lng": 23.5899542,
            "name": "Cluj-Napoca"
        }
    },
    {
        "origin": {
            "lat": 48.3059078,
            "lng": 14.286198,
            "name": "Linz"
        },
        "destination": {
            "lat": 47.1615341,
            "lng": 27.5836142,
            "name": "Iasi"
        }
    },
    {
        "origin": {
            "lat": 48.3059078,
            "lng": 14.286198,
            "name": "Linz"
        },
        "destination": {
            "lat": 44.8178131,
            "lng": 20.4568974,
            "name": "Belgrade"
        }
    },
    {
        "origin": {
            "lat": 48.3059078,
            "lng": 14.286198,
            "name": "Linz"
        },
        "destination": {
            "lat": 48.1516988,
            "lng": 17.1093063,
            "name": "Bratislava"
        }
    },
    {
        "origin": {
            "lat": 48.3059078,
            "lng": 14.286198,
            "name": "Linz"
        },
        "destination": {
            "lat": 48.7172272,
            "lng": 21.2496774,
            "name": "Kosice"
        }
    },
    {
        "origin": {
            "lat": 48.3059078,
            "lng": 14.286198,
            "name": "Linz"
        },
        "destination": {
            "lat": 46.0499803,
            "lng": 14.5068602,
            "name": "Ljubljana"
        }
    },
    {
        "origin": {
            "lat": 48.3059078,
            "lng": 14.286198,
            "name": "Linz"
        },
        "destination": {
            "lat": 41.3828939,
            "lng": 2.1774322,
            "name": "Barcelona"
        }
    },
    {
        "origin": {
            "lat": 48.3059078,
            "lng": 14.286198,
            "name": "Linz"
        },
        "destination": {
            "lat": 43.2630051,
            "lng": -2.9349915,
            "name": "Bilbao"
        }
    },
    {
        "origin": {
            "lat": 48.3059078,
            "lng": 14.286198,
            "name": "Linz"
        },
        "destination": {
            "lat": 40.4167047,
            "lng": -3.7035825,
            "name": "Madrid"
        }
    },
    {
        "origin": {
            "lat": 48.3059078,
            "lng": 14.286198,
            "name": "Linz"
        },
        "destination": {
            "lat": 37.3886303,
            "lng": -5.9953403,
            "name": "Sevilla"
        }
    },
    {
        "origin": {
            "lat": 48.3059078,
            "lng": 14.286198,
            "name": "Linz"
        },
        "destination": {
            "lat": 39.466667,
            "lng": -0.375,
            "name": "Valencia"
        }
    },
    {
        "origin": {
            "lat": 48.3059078,
            "lng": 14.286198,
            "name": "Linz"
        },
        "destination": {
            "lat": 41.6521342,
            "lng": -0.8809428,
            "name": "Zaragoza"
        }
    },
    {
        "origin": {
            "lat": 48.3059078,
            "lng": 14.286198,
            "name": "Linz"
        },
        "destination": {
            "lat": 57.7072326,
            "lng": 11.9670171,
            "name": "Goteborg"
        }
    },
    {
        "origin": {
            "lat": 48.3059078,
            "lng": 14.286198,
            "name": "Linz"
        },
        "destination": {
            "lat": 59.3251172,
            "lng": 18.0710935,
            "name": "Stockholm"
        }
    },
    {
        "origin": {
            "lat": 48.3059078,
            "lng": 14.286198,
            "name": "Linz"
        },
        "destination": {
            "lat": 47.5581077,
            "lng": 7.5878261,
            "name": "Basel"
        }
    },
    {
        "origin": {
            "lat": 48.3059078,
            "lng": 14.286198,
            "name": "Linz"
        },
        "destination": {
            "lat": 46.2017559,
            "lng": 6.1466014,
            "name": "Geneva"
        }
    },
    {
        "origin": {
            "lat": 48.3059078,
            "lng": 14.286198,
            "name": "Linz"
        },
        "destination": {
            "lat": 47.3723941,
            "lng": 8.5423328,
            "name": "Zurich"
        }
    },
    {
        "origin": {
            "lat": 48.3059078,
            "lng": 14.286198,
            "name": "Linz"
        },
        "destination": {
            "lat": 52.3745403,
            "lng": 4.897975506,
            "name": "Amsterdam"
        }
    },
    {
        "origin": {
            "lat": 48.3059078,
            "lng": 14.286198,
            "name": "Linz"
        },
        "destination": {
            "lat": 51.44855695,
            "lng": 5.450122522,
            "name": "Eindhoven"
        }
    },
    {
        "origin": {
            "lat": 48.3059078,
            "lng": 14.286198,
            "name": "Linz"
        },
        "destination": {
            "lat": 51.9228958,
            "lng": 4.4631727,
            "name": "Rotterdam"
        }
    },
    {
        "origin": {
            "lat": 48.3059078,
            "lng": 14.286198,
            "name": "Linz"
        },
        "destination": {
            "lat": 52.0949753,
            "lng": 5.109708,
            "name": "Utrecht"
        }
    },
    {
        "origin": {
            "lat": 48.3059078,
            "lng": 14.286198,
            "name": "Linz"
        },
        "destination": {
            "lat": 52.4796992,
            "lng": -1.9026911,
            "name": "Birmingham"
        }
    },
    {
        "origin": {
            "lat": 48.3059078,
            "lng": 14.286198,
            "name": "Linz"
        },
        "destination": {
            "lat": 55.9533456,
            "lng": -3.1883749,
            "name": "Edinburgh"
        }
    },
    {
        "origin": {
            "lat": 48.3059078,
            "lng": 14.286198,
            "name": "Linz"
        },
        "destination": {
            "lat": 55.8609825,
            "lng": -4.2488787,
            "name": "Glasgow"
        }
    },
    {
        "origin": {
            "lat": 48.3059078,
            "lng": 14.286198,
            "name": "Linz"
        },
        "destination": {
            "lat": 53.7974185,
            "lng": -1.5437941,
            "name": "Leeds"
        }
    },
    {
        "origin": {
            "lat": 48.3059078,
            "lng": 14.286198,
            "name": "Linz"
        },
        "destination": {
            "lat": 53.407154,
            "lng": -2.991665,
            "name": "Liverpool"
        }
    },
    {
        "origin": {
            "lat": 48.3059078,
            "lng": 14.286198,
            "name": "Linz"
        },
        "destination": {
            "lat": 51.5073219,
            "lng": -0.1276474,
            "name": "London"
        }
    },
    {
        "origin": {
            "lat": 48.3059078,
            "lng": 14.286198,
            "name": "Linz"
        },
        "destination": {
            "lat": 53.4794892,
            "lng": -2.2451148,
            "name": "Manchester"
        }
    },
    {
        "origin": {
            "lat": 48.3059078,
            "lng": 14.286198,
            "name": "Linz"
        },
        "destination": {
            "lat": 54.9738474,
            "lng": -1.6131572,
            "name": "Newcastle Upon Tyne"
        }
    },
    {
        "origin": {
            "lat": 48.2083537,
            "lng": 16.3725042,
            "name": "Vienna"
        },
        "destination": {
            "lat": 41.3268733,
            "lng": 19.8187913,
            "name": "Tirana"
        }
    },
    {
        "origin": {
            "lat": 48.2083537,
            "lng": 16.3725042,
            "name": "Vienna"
        },
        "destination": {
            "lat": 48.3059078,
            "lng": 14.286198,
            "name": "Linz"
        }
    },
    {
        "origin": {
            "lat": 48.2083537,
            "lng": 16.3725042,
            "name": "Vienna"
        },
        "destination": {
            "lat": 48.2083537,
            "lng": 16.3725042,
            "name": "Vienna"
        }
    },
    {
        "origin": {
            "lat": 48.2083537,
            "lng": 16.3725042,
            "name": "Vienna"
        },
        "destination": {
            "lat": 51.2211097,
            "lng": 4.3997081,
            "name": "Antwerpen"
        }
    },
    {
        "origin": {
            "lat": 48.2083537,
            "lng": 16.3725042,
            "name": "Vienna"
        },
        "destination": {
            "lat": 50.8465573,
            "lng": 4.351697,
            "name": "Brussels"
        }
    },
    {
        "origin": {
            "lat": 48.2083537,
            "lng": 16.3725042,
            "name": "Vienna"
        },
        "destination": {
            "lat": 51.0538286,
            "lng": 3.7250121,
            "name": "Gent"
        }
    },
    {
        "origin": {
            "lat": 48.2083537,
            "lng": 16.3725042,
            "name": "Vienna"
        },
        "destination": {
            "lat": 50.6451381,
            "lng": 5.5734203,
            "name": "Liege"
        }
    },
    {
        "origin": {
            "lat": 48.2083537,
            "lng": 16.3725042,
            "name": "Vienna"
        },
        "destination": {
            "lat": 43.8519774,
            "lng": 18.3866868,
            "name": "Sarajevo"
        }
    },
    {
        "origin": {
            "lat": 48.2083537,
            "lng": 16.3725042,
            "name": "Vienna"
        },
        "destination": {
            "lat": 42.6978634,
            "lng": 23.3221789,
            "name": "Sofia"
        }
    },
    {
        "origin": {
            "lat": 48.2083537,
            "lng": 16.3725042,
            "name": "Vienna"
        },
        "destination": {
            "lat": 45.813177,
            "lng": 15.977048,
            "name": "Zagreb"
        }
    },
    {
        "origin": {
            "lat": 48.2083537,
            "lng": 16.3725042,
            "name": "Vienna"
        },
        "destination": {
            "lat": 49.1922443,
            "lng": 16.6113382,
            "name": "Brno"
        }
    },
    {
        "origin": {
            "lat": 48.2083537,
            "lng": 16.3725042,
            "name": "Vienna"
        },
        "destination": {
            "lat": 50.0874654,
            "lng": 14.4212535,
            "name": "Prague"
        }
    },
    {
        "origin": {
            "lat": 48.2083537,
            "lng": 16.3725042,
            "name": "Vienna"
        },
        "destination": {
            "lat": 56.1496278,
            "lng": 10.2134046,
            "name": "Arhus"
        }
    },
    {
        "origin": {
            "lat": 48.2083537,
            "lng": 16.3725042,
            "name": "Vienna"
        },
        "destination": {
            "lat": 55.6867243,
            "lng": 12.5700724,
            "name": "Copenhagen"
        }
    },
    {
        "origin": {
            "lat": 48.2083537,
            "lng": 16.3725042,
            "name": "Vienna"
        },
        "destination": {
            "lat": 59.4372155,
            "lng": 24.7453688,
            "name": "Tallinn"
        }
    },
    {
        "origin": {
            "lat": 48.2083537,
            "lng": 16.3725042,
            "name": "Vienna"
        },
        "destination": {
            "lat": 60.1674098,
            "lng": 24.9425769,
            "name": "Helsinki"
        }
    },
    {
        "origin": {
            "lat": 48.2083537,
            "lng": 16.3725042,
            "name": "Vienna"
        },
        "destination": {
            "lat": 44.841225,
            "lng": -0.5800364,
            "name": "Bordeaux"
        }
    },
    {
        "origin": {
            "lat": 48.2083537,
            "lng": 16.3725042,
            "name": "Vienna"
        },
        "destination": {
            "lat": 45.1875602,
            "lng": 5.7357819,
            "name": "Grenoble"
        }
    },
    {
        "origin": {
            "lat": 48.2083537,
            "lng": 16.3725042,
            "name": "Vienna"
        },
        "destination": {
            "lat": 50.6365654,
            "lng": 3.0635282,
            "name": "Lille"
        }
    },
    {
        "origin": {
            "lat": 48.2083537,
            "lng": 16.3725042,
            "name": "Vienna"
        },
        "destination": {
            "lat": 45.7578137,
            "lng": 4.8320114,
            "name": "Lyon"
        }
    },
    {
        "origin": {
            "lat": 48.2083537,
            "lng": 16.3725042,
            "name": "Vienna"
        },
        "destination": {
            "lat": 43.2961743,
            "lng": 5.3699525,
            "name": "Marseille"
        }
    },
    {
        "origin": {
            "lat": 48.2083537,
            "lng": 16.3725042,
            "name": "Vienna"
        },
        "destination": {
            "lat": 43.6112422,
            "lng": 3.8767337,
            "name": "Montpellier"
        }
    },
    {
        "origin": {
            "lat": 48.2083537,
            "lng": 16.3725042,
            "name": "Vienna"
        },
        "destination": {
            "lat": 47.2186371,
            "lng": -1.5541362,
            "name": "Nantes"
        }
    },
    {
        "origin": {
            "lat": 48.2083537,
            "lng": 16.3725042,
            "name": "Vienna"
        },
        "destination": {
            "lat": 43.7009358,
            "lng": 7.2683912,
            "name": "Nice"
        }
    },
    {
        "origin": {
            "lat": 48.2083537,
            "lng": 16.3725042,
            "name": "Vienna"
        },
        "destination": {
            "lat": 48.8566969,
            "lng": 2.3514616,
            "name": "Paris"
        }
    },
    {
        "origin": {
            "lat": 48.2083537,
            "lng": 16.3725042,
            "name": "Vienna"
        },
        "destination": {
            "lat": 48.1113387,
            "lng": -1.6800198,
            "name": "Rennes"
        }
    },
    {
        "origin": {
            "lat": 48.2083537,
            "lng": 16.3725042,
            "name": "Vienna"
        },
        "destination": {
            "lat": 48.584614,
            "lng": 7.7507127,
            "name": "Strasbourg"
        }
    },
    {
        "origin": {
            "lat": 48.2083537,
            "lng": 16.3725042,
            "name": "Vienna"
        },
        "destination": {
            "lat": 43.1257311,
            "lng": 5.9304919,
            "name": "Toulon"
        }
    },
    {
        "origin": {
            "lat": 48.2083537,
            "lng": 16.3725042,
            "name": "Vienna"
        },
        "destination": {
            "lat": 43.6044622,
            "lng": 1.4442469,
            "name": "Toulouse"
        }
    },
    {
        "origin": {
            "lat": 48.2083537,
            "lng": 16.3725042,
            "name": "Vienna"
        },
        "destination": {
            "lat": 50.776351,
            "lng": 6.083862,
            "name": "Aachen"
        }
    },
    {
        "origin": {
            "lat": 48.2083537,
            "lng": 16.3725042,
            "name": "Vienna"
        },
        "destination": {
            "lat": 52.5170365,
            "lng": 13.3888599,
            "name": "Berlin"
        }
    },
    {
        "origin": {
            "lat": 48.2083537,
            "lng": 16.3725042,
            "name": "Vienna"
        },
        "destination": {
            "lat": 53.0758196,
            "lng": 8.8071646,
            "name": "Bremen"
        }
    },
    {
        "origin": {
            "lat": 48.2083537,
            "lng": 16.3725042,
            "name": "Vienna"
        },
        "destination": {
            "lat": 51.0493286,
            "lng": 13.7381437,
            "name": "Dresden"
        }
    },
    {
        "origin": {
            "lat": 48.2083537,
            "lng": 16.3725042,
            "name": "Vienna"
        },
        "destination": {
            "lat": 51.2254018,
            "lng": 6.7763137,
            "name": "Dusseldorf"
        }
    },
    {
        "origin": {
            "lat": 48.2083537,
            "lng": 16.3725042,
            "name": "Vienna"
        },
        "destination": {
            "lat": 50.1106444,
            "lng": 8.6820917,
            "name": "Frankfurt Am Main"
        }
    },
    {
        "origin": {
            "lat": 48.2083537,
            "lng": 16.3725042,
            "name": "Vienna"
        },
        "destination": {
            "lat": 53.543766,
            "lng": 10.009915,
            "name": "Hamburg"
        }
    },
    {
        "origin": {
            "lat": 48.2083537,
            "lng": 16.3725042,
            "name": "Vienna"
        },
        "destination": {
            "lat": 52.379097,
            "lng": 9.742982,
            "name": "Hannover"
        }
    },
    {
        "origin": {
            "lat": 48.2083537,
            "lng": 16.3725042,
            "name": "Vienna"
        },
        "destination": {
            "lat": 49.0068725,
            "lng": 8.403475,
            "name": "Karlsruhe"
        }
    },
    {
        "origin": {
            "lat": 48.2083537,
            "lng": 16.3725042,
            "name": "Vienna"
        },
        "destination": {
            "lat": 54.3227085,
            "lng": 10.135555,
            "name": "Kiel"
        }
    },
    {
        "origin": {
            "lat": 48.2083537,
            "lng": 16.3725042,
            "name": "Vienna"
        },
        "destination": {
            "lat": 50.938361,
            "lng": 6.959974,
            "name": "Cologne"
        }
    },
    {
        "origin": {
            "lat": 48.2083537,
            "lng": 16.3725042,
            "name": "Vienna"
        },
        "destination": {
            "lat": 51.3406321,
            "lng": 12.3747329,
            "name": "Leipzig"
        }
    },
    {
        "origin": {
            "lat": 48.2083537,
            "lng": 16.3725042,
            "name": "Vienna"
        },
        "destination": {
            "lat": 49.489591,
            "lng": 8.467236,
            "name": "Mannheim"
        }
    },
    {
        "origin": {
            "lat": 48.2083537,
            "lng": 16.3725042,
            "name": "Vienna"
        },
        "destination": {
            "lat": 48.1371079,
            "lng": 11.5753822,
            "name": "Munich"
        }
    },
    {
        "origin": {
            "lat": 48.2083537,
            "lng": 16.3725042,
            "name": "Vienna"
        },
        "destination": {
            "lat": 51.4118742,
            "lng": 7.025698,
            "name": "Ruhrgebiet (Essen)"
        }
    },
    {
        "origin": {
            "lat": 48.2083537,
            "lng": 16.3725042,
            "name": "Vienna"
        },
        "destination": {
            "lat": 49.234362,
            "lng": 6.996379,
            "name": "Saarbrucken"
        }
    },
    {
        "origin": {
            "lat": 48.2083537,
            "lng": 16.3725042,
            "name": "Vienna"
        },
        "destination": {
            "lat": 48.7784485,
            "lng": 9.1800132,
            "name": "Stuttgart"
        }
    },
    {
        "origin": {
            "lat": 48.2083537,
            "lng": 16.3725042,
            "name": "Vienna"
        },
        "destination": {
            "lat": 37.9839412,
            "lng": 23.7283052,
            "name": "Athens"
        }
    },
    {
        "origin": {
            "lat": 48.2083537,
            "lng": 16.3725042,
            "name": "Vienna"
        },
        "destination": {
            "lat": 40.6403167,
            "lng": 22.9352716,
            "name": "Thessaloniki"
        }
    },
    {
        "origin": {
            "lat": 48.2083537,
            "lng": 16.3725042,
            "name": "Vienna"
        },
        "destination": {
            "lat": 47.4983815,
            "lng": 19.0404707,
            "name": "Budapest"
        }
    },
    {
        "origin": {
            "lat": 48.2083537,
            "lng": 16.3725042,
            "name": "Vienna"
        },
        "destination": {
            "lat": 41.1257843,
            "lng": 16.8620293,
            "name": "Bari"
        }
    },
    {
        "origin": {
            "lat": 48.2083537,
            "lng": 16.3725042,
            "name": "Vienna"
        },
        "destination": {
            "lat": 44.4936714,
            "lng": 11.3430347,
            "name": "Bologna"
        }
    },
    {
        "origin": {
            "lat": 48.2083537,
            "lng": 16.3725042,
            "name": "Vienna"
        },
        "destination": {
            "lat": 45.539841,
            "lng": 10.22296,
            "name": "Brescia"
        }
    },
    {
        "origin": {
            "lat": 48.2083537,
            "lng": 16.3725042,
            "name": "Vienna"
        },
        "destination": {
            "lat": 37.5022355,
            "lng": 15.08738,
            "name": "Catania"
        }
    },
    {
        "origin": {
            "lat": 48.2083537,
            "lng": 16.3725042,
            "name": "Vienna"
        },
        "destination": {
            "lat": 43.7698712,
            "lng": 11.2555757,
            "name": "Florence"
        }
    },
    {
        "origin": {
            "lat": 48.2083537,
            "lng": 16.3725042,
            "name": "Vienna"
        },
        "destination": {
            "lat": 44.40726,
            "lng": 8.9338624,
            "name": "Genoa"
        }
    },
    {
        "origin": {
            "lat": 48.2083537,
            "lng": 16.3725042,
            "name": "Vienna"
        },
        "destination": {
            "lat": 45.4668,
            "lng": 9.1905,
            "name": "Milano"
        }
    },
    {
        "origin": {
            "lat": 48.2083537,
            "lng": 16.3725042,
            "name": "Vienna"
        },
        "destination": {
            "lat": 40.8359336,
            "lng": 14.2487826,
            "name": "Napoli"
        }
    },
    {
        "origin": {
            "lat": 48.2083537,
            "lng": 16.3725042,
            "name": "Vienna"
        },
        "destination": {
            "lat": 38.1112268,
            "lng": 13.3524434,
            "name": "Palermo"
        }
    },
    {
        "origin": {
            "lat": 48.2083537,
            "lng": 16.3725042,
            "name": "Vienna"
        },
        "destination": {
            "lat": 41.8933203,
            "lng": 12.4829321,
            "name": "Rome"
        }
    },
    {
        "origin": {
            "lat": 48.2083537,
            "lng": 16.3725042,
            "name": "Vienna"
        },
        "destination": {
            "lat": 45.0677551,
            "lng": 7.6824892,
            "name": "Turin"
        }
    },
    {
        "origin": {
            "lat": 48.2083537,
            "lng": 16.3725042,
            "name": "Vienna"
        },
        "destination": {
            "lat": 45.43876,
            "lng": 12.327145,
            "name": "Venice"
        }
    },
    {
        "origin": {
            "lat": 48.2083537,
            "lng": 16.3725042,
            "name": "Vienna"
        },
        "destination": {
            "lat": 45.4384958,
            "lng": 10.9924122,
            "name": "Verona"
        }
    },
    {
        "origin": {
            "lat": 48.2083537,
            "lng": 16.3725042,
            "name": "Vienna"
        },
        "destination": {
            "lat": 42.6638771,
            "lng": 21.1640849,
            "name": "Pristina"
        }
    },
    {
        "origin": {
            "lat": 48.2083537,
            "lng": 16.3725042,
            "name": "Vienna"
        },
        "destination": {
            "lat": 56.9493977,
            "lng": 24.1051846,
            "name": "Riga"
        }
    },
    {
        "origin": {
            "lat": 48.2083537,
            "lng": 16.3725042,
            "name": "Vienna"
        },
        "destination": {
            "lat": 54.68199155,
            "lng": 25.25625728,
            "name": "Vilnius"
        }
    },
    {
        "origin": {
            "lat": 48.2083537,
            "lng": 16.3725042,
            "name": "Vienna"
        },
        "destination": {
            "lat": 49.8158683,
            "lng": 6.1296751,
            "name": "Luxembourg"
        }
    },
    {
        "origin": {
            "lat": 48.2083537,
            "lng": 16.3725042,
            "name": "Vienna"
        },
        "destination": {
            "lat": 41.9960924,
            "lng": 21.4316495,
            "name": "Skopje"
        }
    },
    {
        "origin": {
            "lat": 48.2083537,
            "lng": 16.3725042,
            "name": "Vienna"
        },
        "destination": {
            "lat": 47.0244707,
            "lng": 28.8322534,
            "name": "Chisinau"
        }
    },
    {
        "origin": {
            "lat": 48.2083537,
            "lng": 16.3725042,
            "name": "Vienna"
        },
        "destination": {
            "lat": 42.4415238,
            "lng": 19.2621081,
            "name": "Podgorica"
        }
    },
    {
        "origin": {
            "lat": 48.2083537,
            "lng": 16.3725042,
            "name": "Vienna"
        },
        "destination": {
            "lat": 60.3943055,
            "lng": 5.3259192,
            "name": "Bergen"
        }
    },
    {
        "origin": {
            "lat": 48.2083537,
            "lng": 16.3725042,
            "name": "Vienna"
        },
        "destination": {
            "lat": 59.9133301,
            "lng": 10.7389701,
            "name": "Oslo"
        }
    },
    {
        "origin": {
            "lat": 48.2083537,
            "lng": 16.3725042,
            "name": "Vienna"
        },
        "destination": {
            "lat": 54.347629,
            "lng": 18.6452324,
            "name": "Gdansk"
        }
    },
    {
        "origin": {
            "lat": 48.2083537,
            "lng": 16.3725042,
            "name": "Vienna"
        },
        "destination": {
            "lat": 50.2598987,
            "lng": 19.0215852,
            "name": "Katowice"
        }
    },
    {
        "origin": {
            "lat": 48.2083537,
            "lng": 16.3725042,
            "name": "Vienna"
        },
        "destination": {
            "lat": 50.0619474,
            "lng": 19.9368564,
            "name": "Krakow"
        }
    },
    {
        "origin": {
            "lat": 48.2083537,
            "lng": 16.3725042,
            "name": "Vienna"
        },
        "destination": {
            "lat": 51.7687323,
            "lng": 19.4569911,
            "name": "Lodz"
        }
    },
    {
        "origin": {
            "lat": 48.2083537,
            "lng": 16.3725042,
            "name": "Vienna"
        },
        "destination": {
            "lat": 51.2181945,
            "lng": 22.55467757,
            "name": "Lublin"
        }
    },
    {
        "origin": {
            "lat": 48.2083537,
            "lng": 16.3725042,
            "name": "Vienna"
        },
        "destination": {
            "lat": 52.40063215,
            "lng": 16.91978694,
            "name": "Poznan"
        }
    },
    {
        "origin": {
            "lat": 48.2083537,
            "lng": 16.3725042,
            "name": "Vienna"
        },
        "destination": {
            "lat": 50.00715125,
            "lng": 22.00991153,
            "name": "Rzeszow"
        }
    },
    {
        "origin": {
            "lat": 48.2083537,
            "lng": 16.3725042,
            "name": "Vienna"
        },
        "destination": {
            "lat": 52.2319581,
            "lng": 21.0067249,
            "name": "Warsaw"
        }
    },
    {
        "origin": {
            "lat": 48.2083537,
            "lng": 16.3725042,
            "name": "Vienna"
        },
        "destination": {
            "lat": 51.1263106,
            "lng": 16.97819633,
            "name": "Wroclaw"
        }
    },
    {
        "origin": {
            "lat": 48.2083537,
            "lng": 16.3725042,
            "name": "Vienna"
        },
        "destination": {
            "lat": 38.7077507,
            "lng": -9.1365919,
            "name": "Lisbon"
        }
    },
    {
        "origin": {
            "lat": 48.2083537,
            "lng": 16.3725042,
            "name": "Vienna"
        },
        "destination": {
            "lat": 41.1494512,
            "lng": -8.6107884,
            "name": "Porto"
        }
    },
    {
        "origin": {
            "lat": 48.2083537,
            "lng": 16.3725042,
            "name": "Vienna"
        },
        "destination": {
            "lat": 44.4361414,
            "lng": 26.1027202,
            "name": "Bucharest"
        }
    },
    {
        "origin": {
            "lat": 48.2083537,
            "lng": 16.3725042,
            "name": "Vienna"
        },
        "destination": {
            "lat": 46.769379,
            "lng": 23.5899542,
            "name": "Cluj-Napoca"
        }
    },
    {
        "origin": {
            "lat": 48.2083537,
            "lng": 16.3725042,
            "name": "Vienna"
        },
        "destination": {
            "lat": 47.1615341,
            "lng": 27.5836142,
            "name": "Iasi"
        }
    },
    {
        "origin": {
            "lat": 48.2083537,
            "lng": 16.3725042,
            "name": "Vienna"
        },
        "destination": {
            "lat": 44.8178131,
            "lng": 20.4568974,
            "name": "Belgrade"
        }
    },
    {
        "origin": {
            "lat": 48.2083537,
            "lng": 16.3725042,
            "name": "Vienna"
        },
        "destination": {
            "lat": 48.1516988,
            "lng": 17.1093063,
            "name": "Bratislava"
        }
    },
    {
        "origin": {
            "lat": 48.2083537,
            "lng": 16.3725042,
            "name": "Vienna"
        },
        "destination": {
            "lat": 48.7172272,
            "lng": 21.2496774,
            "name": "Kosice"
        }
    },
    {
        "origin": {
            "lat": 48.2083537,
            "lng": 16.3725042,
            "name": "Vienna"
        },
        "destination": {
            "lat": 46.0499803,
            "lng": 14.5068602,
            "name": "Ljubljana"
        }
    },
    {
        "origin": {
            "lat": 48.2083537,
            "lng": 16.3725042,
            "name": "Vienna"
        },
        "destination": {
            "lat": 41.3828939,
            "lng": 2.1774322,
            "name": "Barcelona"
        }
    },
    {
        "origin": {
            "lat": 48.2083537,
            "lng": 16.3725042,
            "name": "Vienna"
        },
        "destination": {
            "lat": 43.2630051,
            "lng": -2.9349915,
            "name": "Bilbao"
        }
    },
    {
        "origin": {
            "lat": 48.2083537,
            "lng": 16.3725042,
            "name": "Vienna"
        },
        "destination": {
            "lat": 40.4167047,
            "lng": -3.7035825,
            "name": "Madrid"
        }
    },
    {
        "origin": {
            "lat": 48.2083537,
            "lng": 16.3725042,
            "name": "Vienna"
        },
        "destination": {
            "lat": 37.3886303,
            "lng": -5.9953403,
            "name": "Sevilla"
        }
    },
    {
        "origin": {
            "lat": 48.2083537,
            "lng": 16.3725042,
            "name": "Vienna"
        },
        "destination": {
            "lat": 39.466667,
            "lng": -0.375,
            "name": "Valencia"
        }
    },
    {
        "origin": {
            "lat": 48.2083537,
            "lng": 16.3725042,
            "name": "Vienna"
        },
        "destination": {
            "lat": 41.6521342,
            "lng": -0.8809428,
            "name": "Zaragoza"
        }
    },
    {
        "origin": {
            "lat": 48.2083537,
            "lng": 16.3725042,
            "name": "Vienna"
        },
        "destination": {
            "lat": 57.7072326,
            "lng": 11.9670171,
            "name": "Goteborg"
        }
    },
    {
        "origin": {
            "lat": 48.2083537,
            "lng": 16.3725042,
            "name": "Vienna"
        },
        "destination": {
            "lat": 59.3251172,
            "lng": 18.0710935,
            "name": "Stockholm"
        }
    },
    {
        "origin": {
            "lat": 48.2083537,
            "lng": 16.3725042,
            "name": "Vienna"
        },
        "destination": {
            "lat": 47.5581077,
            "lng": 7.5878261,
            "name": "Basel"
        }
    },
    {
        "origin": {
            "lat": 48.2083537,
            "lng": 16.3725042,
            "name": "Vienna"
        },
        "destination": {
            "lat": 46.2017559,
            "lng": 6.1466014,
            "name": "Geneva"
        }
    },
    {
        "origin": {
            "lat": 48.2083537,
            "lng": 16.3725042,
            "name": "Vienna"
        },
        "destination": {
            "lat": 47.3723941,
            "lng": 8.5423328,
            "name": "Zurich"
        }
    },
    {
        "origin": {
            "lat": 48.2083537,
            "lng": 16.3725042,
            "name": "Vienna"
        },
        "destination": {
            "lat": 52.3745403,
            "lng": 4.897975506,
            "name": "Amsterdam"
        }
    },
    {
        "origin": {
            "lat": 48.2083537,
            "lng": 16.3725042,
            "name": "Vienna"
        },
        "destination": {
            "lat": 51.44855695,
            "lng": 5.450122522,
            "name": "Eindhoven"
        }
    },
    {
        "origin": {
            "lat": 48.2083537,
            "lng": 16.3725042,
            "name": "Vienna"
        },
        "destination": {
            "lat": 51.9228958,
            "lng": 4.4631727,
            "name": "Rotterdam"
        }
    },
    {
        "origin": {
            "lat": 48.2083537,
            "lng": 16.3725042,
            "name": "Vienna"
        },
        "destination": {
            "lat": 52.0949753,
            "lng": 5.109708,
            "name": "Utrecht"
        }
    },
    {
        "origin": {
            "lat": 48.2083537,
            "lng": 16.3725042,
            "name": "Vienna"
        },
        "destination": {
            "lat": 52.4796992,
            "lng": -1.9026911,
            "name": "Birmingham"
        }
    },
    {
        "origin": {
            "lat": 48.2083537,
            "lng": 16.3725042,
            "name": "Vienna"
        },
        "destination": {
            "lat": 55.9533456,
            "lng": -3.1883749,
            "name": "Edinburgh"
        }
    },
    {
        "origin": {
            "lat": 48.2083537,
            "lng": 16.3725042,
            "name": "Vienna"
        },
        "destination": {
            "lat": 55.8609825,
            "lng": -4.2488787,
            "name": "Glasgow"
        }
    },
    {
        "origin": {
            "lat": 48.2083537,
            "lng": 16.3725042,
            "name": "Vienna"
        },
        "destination": {
            "lat": 53.7974185,
            "lng": -1.5437941,
            "name": "Leeds"
        }
    },
    {
        "origin": {
            "lat": 48.2083537,
            "lng": 16.3725042,
            "name": "Vienna"
        },
        "destination": {
            "lat": 53.407154,
            "lng": -2.991665,
            "name": "Liverpool"
        }
    },
    {
        "origin": {
            "lat": 48.2083537,
            "lng": 16.3725042,
            "name": "Vienna"
        },
        "destination": {
            "lat": 51.5073219,
            "lng": -0.1276474,
            "name": "London"
        }
    },
    {
        "origin": {
            "lat": 48.2083537,
            "lng": 16.3725042,
            "name": "Vienna"
        },
        "destination": {
            "lat": 53.4794892,
            "lng": -2.2451148,
            "name": "Manchester"
        }
    },
    {
        "origin": {
            "lat": 48.2083537,
            "lng": 16.3725042,
            "name": "Vienna"
        },
        "destination": {
            "lat": 54.9738474,
            "lng": -1.6131572,
            "name": "Newcastle Upon Tyne"
        }
    },
    {
        "origin": {
            "lat": 51.2211097,
            "lng": 4.3997081,
            "name": "Antwerpen"
        },
        "destination": {
            "lat": 41.3268733,
            "lng": 19.8187913,
            "name": "Tirana"
        }
    },
    {
        "origin": {
            "lat": 51.2211097,
            "lng": 4.3997081,
            "name": "Antwerpen"
        },
        "destination": {
            "lat": 48.3059078,
            "lng": 14.286198,
            "name": "Linz"
        }
    },
    {
        "origin": {
            "lat": 51.2211097,
            "lng": 4.3997081,
            "name": "Antwerpen"
        },
        "destination": {
            "lat": 48.2083537,
            "lng": 16.3725042,
            "name": "Vienna"
        }
    },
    {
        "origin": {
            "lat": 51.2211097,
            "lng": 4.3997081,
            "name": "Antwerpen"
        },
        "destination": {
            "lat": 51.2211097,
            "lng": 4.3997081,
            "name": "Antwerpen"
        }
    },
    {
        "origin": {
            "lat": 51.2211097,
            "lng": 4.3997081,
            "name": "Antwerpen"
        },
        "destination": {
            "lat": 50.8465573,
            "lng": 4.351697,
            "name": "Brussels"
        }
    },
    {
        "origin": {
            "lat": 51.2211097,
            "lng": 4.3997081,
            "name": "Antwerpen"
        },
        "destination": {
            "lat": 51.0538286,
            "lng": 3.7250121,
            "name": "Gent"
        }
    },
    {
        "origin": {
            "lat": 51.2211097,
            "lng": 4.3997081,
            "name": "Antwerpen"
        },
        "destination": {
            "lat": 50.6451381,
            "lng": 5.5734203,
            "name": "Liege"
        }
    },
    {
        "origin": {
            "lat": 51.2211097,
            "lng": 4.3997081,
            "name": "Antwerpen"
        },
        "destination": {
            "lat": 43.8519774,
            "lng": 18.3866868,
            "name": "Sarajevo"
        }
    },
    {
        "origin": {
            "lat": 51.2211097,
            "lng": 4.3997081,
            "name": "Antwerpen"
        },
        "destination": {
            "lat": 42.6978634,
            "lng": 23.3221789,
            "name": "Sofia"
        }
    },
    {
        "origin": {
            "lat": 51.2211097,
            "lng": 4.3997081,
            "name": "Antwerpen"
        },
        "destination": {
            "lat": 45.813177,
            "lng": 15.977048,
            "name": "Zagreb"
        }
    },
    {
        "origin": {
            "lat": 51.2211097,
            "lng": 4.3997081,
            "name": "Antwerpen"
        },
        "destination": {
            "lat": 49.1922443,
            "lng": 16.6113382,
            "name": "Brno"
        }
    },
    {
        "origin": {
            "lat": 51.2211097,
            "lng": 4.3997081,
            "name": "Antwerpen"
        },
        "destination": {
            "lat": 50.0874654,
            "lng": 14.4212535,
            "name": "Prague"
        }
    },
    {
        "origin": {
            "lat": 51.2211097,
            "lng": 4.3997081,
            "name": "Antwerpen"
        },
        "destination": {
            "lat": 56.1496278,
            "lng": 10.2134046,
            "name": "Arhus"
        }
    },
    {
        "origin": {
            "lat": 51.2211097,
            "lng": 4.3997081,
            "name": "Antwerpen"
        },
        "destination": {
            "lat": 55.6867243,
            "lng": 12.5700724,
            "name": "Copenhagen"
        }
    },
    {
        "origin": {
            "lat": 51.2211097,
            "lng": 4.3997081,
            "name": "Antwerpen"
        },
        "destination": {
            "lat": 59.4372155,
            "lng": 24.7453688,
            "name": "Tallinn"
        }
    },
    {
        "origin": {
            "lat": 51.2211097,
            "lng": 4.3997081,
            "name": "Antwerpen"
        },
        "destination": {
            "lat": 60.1674098,
            "lng": 24.9425769,
            "name": "Helsinki"
        }
    },
    {
        "origin": {
            "lat": 51.2211097,
            "lng": 4.3997081,
            "name": "Antwerpen"
        },
        "destination": {
            "lat": 44.841225,
            "lng": -0.5800364,
            "name": "Bordeaux"
        }
    },
    {
        "origin": {
            "lat": 51.2211097,
            "lng": 4.3997081,
            "name": "Antwerpen"
        },
        "destination": {
            "lat": 45.1875602,
            "lng": 5.7357819,
            "name": "Grenoble"
        }
    },
    {
        "origin": {
            "lat": 51.2211097,
            "lng": 4.3997081,
            "name": "Antwerpen"
        },
        "destination": {
            "lat": 50.6365654,
            "lng": 3.0635282,
            "name": "Lille"
        }
    },
    {
        "origin": {
            "lat": 51.2211097,
            "lng": 4.3997081,
            "name": "Antwerpen"
        },
        "destination": {
            "lat": 45.7578137,
            "lng": 4.8320114,
            "name": "Lyon"
        }
    },
    {
        "origin": {
            "lat": 51.2211097,
            "lng": 4.3997081,
            "name": "Antwerpen"
        },
        "destination": {
            "lat": 43.2961743,
            "lng": 5.3699525,
            "name": "Marseille"
        }
    },
    {
        "origin": {
            "lat": 51.2211097,
            "lng": 4.3997081,
            "name": "Antwerpen"
        },
        "destination": {
            "lat": 43.6112422,
            "lng": 3.8767337,
            "name": "Montpellier"
        }
    },
    {
        "origin": {
            "lat": 51.2211097,
            "lng": 4.3997081,
            "name": "Antwerpen"
        },
        "destination": {
            "lat": 47.2186371,
            "lng": -1.5541362,
            "name": "Nantes"
        }
    },
    {
        "origin": {
            "lat": 51.2211097,
            "lng": 4.3997081,
            "name": "Antwerpen"
        },
        "destination": {
            "lat": 43.7009358,
            "lng": 7.2683912,
            "name": "Nice"
        }
    },
    {
        "origin": {
            "lat": 51.2211097,
            "lng": 4.3997081,
            "name": "Antwerpen"
        },
        "destination": {
            "lat": 48.8566969,
            "lng": 2.3514616,
            "name": "Paris"
        }
    },
    {
        "origin": {
            "lat": 51.2211097,
            "lng": 4.3997081,
            "name": "Antwerpen"
        },
        "destination": {
            "lat": 48.1113387,
            "lng": -1.6800198,
            "name": "Rennes"
        }
    },
    {
        "origin": {
            "lat": 51.2211097,
            "lng": 4.3997081,
            "name": "Antwerpen"
        },
        "destination": {
            "lat": 48.584614,
            "lng": 7.7507127,
            "name": "Strasbourg"
        }
    },
    {
        "origin": {
            "lat": 51.2211097,
            "lng": 4.3997081,
            "name": "Antwerpen"
        },
        "destination": {
            "lat": 43.1257311,
            "lng": 5.9304919,
            "name": "Toulon"
        }
    },
    {
        "origin": {
            "lat": 51.2211097,
            "lng": 4.3997081,
            "name": "Antwerpen"
        },
        "destination": {
            "lat": 43.6044622,
            "lng": 1.4442469,
            "name": "Toulouse"
        }
    },
    {
        "origin": {
            "lat": 51.2211097,
            "lng": 4.3997081,
            "name": "Antwerpen"
        },
        "destination": {
            "lat": 50.776351,
            "lng": 6.083862,
            "name": "Aachen"
        }
    },
    {
        "origin": {
            "lat": 51.2211097,
            "lng": 4.3997081,
            "name": "Antwerpen"
        },
        "destination": {
            "lat": 52.5170365,
            "lng": 13.3888599,
            "name": "Berlin"
        }
    },
    {
        "origin": {
            "lat": 51.2211097,
            "lng": 4.3997081,
            "name": "Antwerpen"
        },
        "destination": {
            "lat": 53.0758196,
            "lng": 8.8071646,
            "name": "Bremen"
        }
    },
    {
        "origin": {
            "lat": 51.2211097,
            "lng": 4.3997081,
            "name": "Antwerpen"
        },
        "destination": {
            "lat": 51.0493286,
            "lng": 13.7381437,
            "name": "Dresden"
        }
    },
    {
        "origin": {
            "lat": 51.2211097,
            "lng": 4.3997081,
            "name": "Antwerpen"
        },
        "destination": {
            "lat": 51.2254018,
            "lng": 6.7763137,
            "name": "Dusseldorf"
        }
    },
    {
        "origin": {
            "lat": 51.2211097,
            "lng": 4.3997081,
            "name": "Antwerpen"
        },
        "destination": {
            "lat": 50.1106444,
            "lng": 8.6820917,
            "name": "Frankfurt Am Main"
        }
    },
    {
        "origin": {
            "lat": 51.2211097,
            "lng": 4.3997081,
            "name": "Antwerpen"
        },
        "destination": {
            "lat": 53.543766,
            "lng": 10.009915,
            "name": "Hamburg"
        }
    },
    {
        "origin": {
            "lat": 51.2211097,
            "lng": 4.3997081,
            "name": "Antwerpen"
        },
        "destination": {
            "lat": 52.379097,
            "lng": 9.742982,
            "name": "Hannover"
        }
    },
    {
        "origin": {
            "lat": 51.2211097,
            "lng": 4.3997081,
            "name": "Antwerpen"
        },
        "destination": {
            "lat": 49.0068725,
            "lng": 8.403475,
            "name": "Karlsruhe"
        }
    },
    {
        "origin": {
            "lat": 51.2211097,
            "lng": 4.3997081,
            "name": "Antwerpen"
        },
        "destination": {
            "lat": 54.3227085,
            "lng": 10.135555,
            "name": "Kiel"
        }
    },
    {
        "origin": {
            "lat": 51.2211097,
            "lng": 4.3997081,
            "name": "Antwerpen"
        },
        "destination": {
            "lat": 50.938361,
            "lng": 6.959974,
            "name": "Cologne"
        }
    },
    {
        "origin": {
            "lat": 51.2211097,
            "lng": 4.3997081,
            "name": "Antwerpen"
        },
        "destination": {
            "lat": 51.3406321,
            "lng": 12.3747329,
            "name": "Leipzig"
        }
    },
    {
        "origin": {
            "lat": 51.2211097,
            "lng": 4.3997081,
            "name": "Antwerpen"
        },
        "destination": {
            "lat": 49.489591,
            "lng": 8.467236,
            "name": "Mannheim"
        }
    },
    {
        "origin": {
            "lat": 51.2211097,
            "lng": 4.3997081,
            "name": "Antwerpen"
        },
        "destination": {
            "lat": 48.1371079,
            "lng": 11.5753822,
            "name": "Munich"
        }
    },
    {
        "origin": {
            "lat": 51.2211097,
            "lng": 4.3997081,
            "name": "Antwerpen"
        },
        "destination": {
            "lat": 51.4118742,
            "lng": 7.025698,
            "name": "Ruhrgebiet (Essen)"
        }
    },
    {
        "origin": {
            "lat": 51.2211097,
            "lng": 4.3997081,
            "name": "Antwerpen"
        },
        "destination": {
            "lat": 49.234362,
            "lng": 6.996379,
            "name": "Saarbrucken"
        }
    },
    {
        "origin": {
            "lat": 51.2211097,
            "lng": 4.3997081,
            "name": "Antwerpen"
        },
        "destination": {
            "lat": 48.7784485,
            "lng": 9.1800132,
            "name": "Stuttgart"
        }
    },
    {
        "origin": {
            "lat": 51.2211097,
            "lng": 4.3997081,
            "name": "Antwerpen"
        },
        "destination": {
            "lat": 37.9839412,
            "lng": 23.7283052,
            "name": "Athens"
        }
    },